code	name	placeName	Longitude	Latitude	num_accessible_stations_30m	num_accessible_stations_45m	num_accessible_stations_60m
9400ZZLUBNK	Bank Underground Station	Bank	-0.08895	51.51342	393	761	978
9400ZZLULNB	London Bridge Underground Station	London Bridge	-0.08887	51.50573	384	752	969
9400ZZLUWLO	Waterloo Underground Station	Waterloo	-0.11478	51.5033	384	764	964
9400ZZLUGPK	Green Park Underground Station	Green Park	-0.14278	51.50695	384	767	967
9400ZZLUWSM	Westminster Underground Station	Westminster	-0.12486	51.50132	375	767	962
9400ZZLUOXC	Oxford Circus Underground Station	Oxford Circus	-0.1419	51.51523	369	764	970
9400ZZLUSWK	Southwark Underground Station	Southwark	-0.10493	51.50398	366	747	965
9400ZZLUBND	Bond Street Underground Station	Bond Street	-0.14972	51.51431	363	750	960
9400ZZLUMGT	Moorgate Underground Station	Moorgate	-0.08832	51.51818	362	746	966
9400ZZLUTCR	Tottenham Court Road Underground Station	Tottenham Court Road	-0.13041	51.51643	359	753	965
9400ZZLUKSX	King's Cross St. Pancras Underground Station	King's Cross	-0.12319	51.53067	359	738	953
9400ZZLUVIC	Victoria Underground Station	Victoria	-0.1431	51.49636	358	745	958
9400ZZLUEMB	Embankment Underground Station	Embankment	-0.12266	51.50706	356	744	951
9400ZZLUEUS	Euston Underground Station	Euston	-0.13378	51.528	356	730	948
9400ZZLULSQ	Leicester Square Underground Station	Leicester Square	-0.12842	51.51139	354	745	957
9400ZZLULVT	Liverpool Street Underground Station	Liverpool Street	-0.08318	51.51738	351	721	954
9400ZZLUWRR	Warren Street Underground Station	Warren Street	-0.13832	51.52496	351	735	956
9100WATRLMN	London Waterloo Rail Station	Waterloo	-0.1131	51.5033	350	731	962
9400ZZLUHBN	Holborn Underground Station	Holborn	-0.12047	51.51758	350	737	950
9400ZZLUODS	Old Street Underground Station	Old Street	-0.08776	51.52587	349	740	955
9400ZZLUSPU	St. Paul's Underground Station	St Pauls	-0.09756	51.51494	348	732	949
9400ZZLUGDG	Goodge Street Underground Station	Goodge Street	-0.13436	51.5206	348	725	951
9400ZZLUCHX	Charing Cross Underground Station	Charing Cross	-0.12727	51.50741	347	741	953
9100LNDNBDE	London Bridge Rail Station	London Bridge	-0.08608	51.50511	344	705	945
9400ZZLUCHL	Chancery Lane Underground Station	Chancery Lane	-0.11158	51.51825	341	727	947
9400ZZDLBNK	Bank DLR Station	City of London	-0.08851	51.51324	339	722	945
9400ZZLUPCC	Piccadilly Circus Underground Station	Piccadilly Circus	-0.13379	51.51005	338	738	952
9100LNDNBDC	London Bridge Rail Station	London Bridge	-0.08609	51.50502	334	700	939
9400ZZLUBMY	Bermondsey Underground Station	Bermondsey	-0.06376	51.49796	329	715	950
9400ZZLUMBA	Marble Arch Underground Station	Marble Arch	-0.15895	51.51343	329	722	943
9400ZZLUAGL	Angel Underground Station	Angel	-0.10538	51.53177	329	721	938
9400ZZLUBST	Baker Street Underground Station	Marylebone	-0.15713	51.52289	328	718	945
9400ZZLUCGN	Covent Garden Underground Station	Covent Garden	-0.12443	51.5131	324	716	943
9400ZZLUBOR	Borough Underground Station	The Borough	-0.09336	51.5012	324	703	933
9100VICTRIC	London Victoria Rail Station	Victoria	-0.14455	51.49526	324	709	954
9400ZZLUMTC	Mornington Crescent Underground Station	Mornington Crescent	-0.13878	51.53468	322	691	929
9400ZZLUCWR	Canada Water Underground Station	Canada Water	-0.04972	51.49795	322	700	934
9100CANONST	London Cannon Street Rail Station	Cannon Street	-0.09029	51.51139	320	694	941
9100KNGX	London Kings Cross Rail Station	King's Cross	-0.12292	51.53089	319	683	929
9400ZZLUBBN	Barbican Underground Station	Barbican	-0.09799	51.52028	317	712	936
9400ZZLURSQ	Russell Square Underground Station	Russell Square	-0.12428	51.52308	314	686	923
9400ZZLUSJP	St. James's Park Underground Station	St James's Park	-0.1336	51.49955	313	718	944
9100MRGT	Moorgate Rail Station	Moorgate	-0.08894	51.5185	312	692	921
9100BLFR	London Blackfriars Rail Station	Blackfriars	-0.10333	51.51181	309	691	922
9100EUSTON	London Euston Rail Station	Euston	-0.13392	51.52814	309	678	919
9400ZZLUEAC	Elephant & Castle Underground Station	Elephant & Castle	-0.1006	51.49454	308	694	928
9400ZZLUKNG	Kennington Underground Station	Kennington	-0.10596	51.48834	308	703	929
9100VICTRIE	London Victoria Rail Station	Victoria	-0.14454	51.49526	307	700	948
9400ZZLUCST	Cannon Street Underground Station	Cannon Street	-0.09043	51.51151	307	684	926
9100LIVST	London Liverpool Street Rail Station	Liverpool Street	-0.08142	51.518	306	660	921
9400ZZLUFCN	Farringdon Underground Station	Farringdon	-0.10491	51.52026	304	695	934
9400ZZLUESQ	Euston Square Underground Station	Euston Square	-0.13582	51.52561	303	686	937
9400ZZLUHAI	Highbury & Islington Underground Station	Highbury & Islington	-0.10332	51.54636	303	646	912
9400ZZLULGT	Lancaster Gate Underground Station	Lancaster Gate	-0.17549	51.51173	303	682	925
9100STPADOM	London St Pancras International Rail Station	St Pancras	-0.12646	51.53252	303	651	932
9100OLDST	Old Street Rail Station	Old Street	-0.08853	51.52584	302	690	921
9400ZZLUHPC	Hyde Park Corner Underground Station	Hyde Park Corner	-0.15244	51.50304	302	702	929
9100CLPHMJM	Clapham Junction Rail Station	Clapham Junction	-0.17026	51.46419	298	649	920
9400ZZLUTMP	Temple Underground Station	Temple	-0.11426	51.51101	297	697	930
9400ZZLURGP	Regent's Park Underground Station	Regent's Park	-0.14644	51.52335	297	709	938
9400ZZLUTWH	Tower Hill Underground Station	Tower Hill	-0.07654	51.50998	295	675	913
9400ZZLUMSH	Mansion House Underground Station	Mansion House	-0.094	51.51212	293	681	921
9100CHRX	London Charing Cross Rail Station	Charing Cross	-0.1248	51.50803	293	704	939
9400ZZLUALD	Aldgate Underground Station	Aldgate	-0.07568	51.51425	293	671	920
9100STPXBOX	London St Pancras International LL Rail Station	St Pancras	-0.12734	51.53217	293	651	912
9400ZZLUBLG	Bethnal Green Underground Station	Bethnal Green	-0.0555	51.52723	293	642	908
9400ZZLUMMT	Monument Underground Station	Monument	-0.08596	51.5107	292	677	924
9100VAUXHLM	Vauxhall Rail Station	Vauxhall	-0.12289	51.48619	292	668	930
9400ZZLUNHG	Notting Hill Gate Underground Station	Notting Hill	-0.1961	51.50913	290	665	919
9400ZZLUQWY	Queensway Underground Station	Queensway	-0.18715	51.51032	290	656	915
9400ZZLUGPS	Great Portland Street Underground Station	Great Portland Street	-0.14426	51.52384	289	665	926
9100WLOE	London Waterloo East Rail Station	Waterloo	-0.10889	51.50408	289	699	936
9400ZZLUBKF	Blackfriars Underground Station	Blackfriars	-0.10365	51.51159	288	692	928
9400ZZLULBN	Lambeth North Underground Station	Lambeth North	-0.11231	51.49881	288	683	925
9400ZZDLSHA	Shadwell DLR Station	Shadwell	-0.05664	51.5117	286	649	906
9100ESSEXRD	Essex Road Rail Station	Islington	-0.09627	51.54071	285	643	903
9100CLPHMJC	Clapham Junction Rail Station	Clapham Junction	-0.17028	51.46419	285	636	915
9100FRNDNLT	Farringdon (London) Rail Station	Clerkenwell	-0.1052	51.52017	284	668	913
9400ZZLUCYF	Canary Wharf Underground Station	Canary Wharf	-0.01824	51.50349	284	645	908
9400ZZLUPCO	Pimlico Underground Station	Pimlico	-0.13376	51.4891	283	694	935
9400ZZLUMYB	Marylebone Underground Station	Marylebone	-0.1632	51.52233	283	663	924
9400ZZLUKNB	Knightsbridge Underground Station	Knightsbridge	-0.1605	51.50167	282	685	919
9100HGHI	Highbury & Islington Rail Station	Highbury	-0.10376	51.54618	282	628	898
9400ZZLUCTN	Camden Town Underground Station	Camden Town	-0.14274	51.5393	282	642	909
9400ZZLUVXL	Vauxhall Underground Station	Vauxhall	-0.1242	51.48575	281	678	932
9400ZZLUERC	Edgware Road (Circle Line) Underground Station	Edgware Road	-0.16783	51.51986	277	647	917
9100SURREYQ	Surrey Quays Rail Station	Surrey Quays	-0.04751	51.4932	277	624	886
9400ZZLUSKW	Stockwell Underground Station	Stockwell	-0.12264	51.47219	276	660	912
9400ZZLUSSQ	Sloane Square Underground Station	Sloane Square	-0.15637	51.49227	275	685	925
9100STPX	London St Pancras International Rail Station	St Pancras	-0.12718	51.5324	275	630	909
9100CNDAW	Canada Water Rail Station	Canada Water	-0.04971	51.49799	274	636	899
9100HIGHBYA	Highbury & Islington Rail Station	Highbury	-0.10376	51.54609	274	600	892
9400ZZLUMED	Mile End Underground Station	Mile End	-0.03363	51.52513	271	577	883
9100CLPHMJ1	Clapham Junction Rail Station	Clapham Junction	-0.17022	51.46419	271	624	901
9100NEWXGTE	New Cross Gate Rail Station	New Cross Gate/Sth Bermondsey	-0.04039	51.47513	269	598	880
9100CNNB	Canonbury Rail Station	Canonbury	-0.09219	51.54874	269	582	873
9100DRYP	Drayton Park Rail Station	Highbury	-0.1055	51.55278	267	604	891
9100BATRSPK	Battersea Park Rail Station	Battersea	-0.14753	51.47696	266	644	926
9400ZZDLLIM	Limehouse DLR Station	Limehouse	-0.0398	51.5124	266	614	888
9400ZZLUNGW	North Greenwich Underground Station	North Greenwich	0.0043	51.50047	264	609	890
9100RTHERHI	Rotherhithe Rail Station	Rotherhithe/Surrey Quays	-0.05204	51.50082	263	622	887
9400ZZLUCFM	Chalk Farm Underground Station	Chalk Farm	-0.15338	51.54412	263	616	894
9100CTMSLNK	City Thameslink Rail Station	City of London	-0.10358	51.51394	262	637	898
9400ZZLUOVL	Oval Underground Station	Oval	-0.11243	51.48185	261	644	901
9400ZZLUGTR	Gloucester Road Underground Station	Gloucester Road	-0.18265	51.49432	260	642	910
9100KNTSHTN	Kentish Town Rail Station	Kentish Town	-0.14036	51.5505	260	606	890
9400ZZLUSKS	South Kensington Underground Station	South Kensington	-0.17414	51.4941	259	658	912
9400ZZLUCAR	Caledonian Road Underground Station	Caledonian Road	-0.11849	51.54852	259	604	892
9100STFODOM	Stratford International Rail Station	Stratford	-0.00877	51.54483	258	547	871
9400ZZDLEIN	East India DLR Station	East India	-0.00232	51.50936	258	528	853
9100CLPHMJW	Clapham Junction Rail Station	Clapham Junction	-0.17025	51.46419	257	625	901
9400ZZLUHPK	Holland Park Underground Station	Holland Park	-0.20568	51.50715	256	625	898
9400ZZDLCGT	Canning Town DLR Station	Canning Town	0.00811	51.51413	256	553	860
9400ZZLUSJW	St. John's Wood Underground Station	St Johns Wood	-0.17395	51.53453	255	643	909
9400ZZLUCGT	Canning Town Underground Station	Canning Town	0.00833	51.51359	255	587	880
9100SHADWEL	Shadwell Rail Station	Shadwell	-0.05693	51.51129	255	601	871
9400ZZLUFPK	Finsbury Park Underground Station	Finsbury Park	-0.10682	51.56416	255	584	888
9400ZZLUERB	Edgware Road (Bakerloo) Underground Station	Edgware Road	-0.17015	51.5203	255	632	911
9100STFD	Stratford (London) Rail Station	Stratford	-0.00339	51.5419	254	508	839
9100WAPPING	Wapping Rail Station	Wapping	-0.05592	51.50439	253	594	875
9100MARYLBN	London Marylebone Rail Station	Marylebone	-0.16291	51.52253	253	605	906
9100FNPK	Finsbury Park Rail Station	Finsbury Park	-0.10628	51.56431	253	574	876
9400ZZLUSTD	Stratford Underground Station	Stratford	-0.00345	51.54181	253	523	848
9400ZZLUKSH	Kentish Town Underground Station	Kentish Town	-0.14073	51.55032	253	600	892
9100NWCROSS	New Cross Rail Station	New Cross	-0.03242	51.47635	253	586	874
9400ZZLUPAC	Paddington Underground Station	Paddington	-0.17569	51.51659	252	617	914
9400ZZDLTWG	Tower Gateway DLR Station	Tower Gateway	-0.07481	51.51062	252	610	881
9100ELPHNAC	Elephant & Castle Rail Station	Elephant & Castle	-0.09872	51.49403	252	621	891
9400ZZDLPOP	Poplar DLR Station	Poplar	-0.01738	51.50775	251	557	856
9400ZZDLBLA	Blackwall DLR Station	South Bromley	-0.00696	51.50799	251	530	844
9400ZZDLWFE	Westferry DLR Station	Westferry	-0.02674	51.50944	249	573	869
9400ZZLUHSK	High Street Kensington Underground Station	High Street Kensington	-0.19279	51.50106	248	631	911
9400ZZLUWPL	Whitechapel Underground Station	Whitechapel	-0.05996	51.51952	247	562	861
9400ZZLUADE	Aldgate East Underground Station	Aldgate East	-0.07238	51.51504	246	601	882
9100WCHAPEL	Whitechapel Rail Station	Whitechapel	-0.05975	51.51947	246	560	852
9400ZZDLSTD	Stratford DLR Station	Stratford	-0.00328	51.54176	245	511	839
9400ZZLUHWY	Holloway Road Underground Station	Holloway Road	-0.11324	51.5527	244	576	884
9400ZZDLPUD	Pudding Mill Lane DLR Station	Pudding Mill Lane	-0.01414	51.53413	244	516	839
9100PCKHMQD	Queens Road Peckham Rail Station	Peckham	-0.05731	51.47357	242	588	865
9100DALS	Dalston Junction Rail Station	Kingsland	-0.07513	51.54612	241	537	844
9100CLDNNRB	Caledonian Road & Barnsbury Rail Station	Barnsbury	-0.11672	51.54305	240	556	864
9400ZZLUWHM	West Ham Underground Station	West Ham	0.00506	51.52814	240	553	856
9400ZZLUBWT	Bayswater Underground Station	Bayswater	-0.18794	51.51229	240	613	908
9400ZZLUSBC	Shepherd's Bush (Central) Underground Station	Shepherd's Bush	-0.21881	51.50438	240	593	888
9400ZZLUECT	Earl's Court Underground Station	Earls Court	-0.19338	51.49207	239	610	888
9100SBRMNDS	South Bermondsey Rail Station	Bermondsey	-0.05467	51.48814	238	606	885
9100FENCHRS	London Fenchurch Street Rail Station	City of London	-0.07889	51.51165	237	589	878
9400ZZLUASL	Arsenal Underground Station	Arsenal	-0.10745	51.55866	237	555	874
9100BTHNLGR	Bethnal Green Rail Station	Bethnal Green	-0.05956	51.52392	237	565	862
9400ZZLUSWC	Swiss Cottage Underground Station	Swiss Cottage	-0.17489	51.54369	236	601	884
9100DENMRKH	Denmark Hill Rail Station	Camberwell	-0.08936	51.46821	236	587	868
9400ZZDLWIQ	West India Quay DLR Station	West India Quay	-0.0203	51.50703	235	559	859
9400ZZDLSIT	Stratford International DLR Station	Stratford	-0.00963	51.54527	235	512	850
9100QTRDBAT	Queenstown Road (Battersea) Rail Station	Battersea	-0.14667	51.47497	235	618	897
9100DALSKLD	Dalston Kingsland Rail Station	Kingsland	-0.07569	51.54815	235	514	831
9400ZZDLCAN	Canary Wharf DLR Station	Canary Wharf	-0.02099	51.50484	234	568	867
9400ZZLUSGN	Stepney Green Underground Station	Stepney Green	-0.04659	51.52186	233	525	842
9100LIMHSE	Limehouse Rail Station	Limehouse	-0.0398	51.51254	233	547	848
9400ZZDLSHS	Stratford High Street DLR Station	Stratford	-0.00107	51.5382	232	497	831
9400ZZLUBWR	Bow Road Underground Station	Bow	-0.02512	51.52694	232	510	840
9100KENOLYM	Kensington Olympia Rail Station	Kensington	-0.21036	51.4979	231	596	877
9100SHPDSB	Shepherds Bush Rail Station	Shepherd's Bush	-0.21765	51.50529	230	582	871
9100PADTON	London Paddington Rail Station	Paddington	-0.17617	51.516	230	556	881
9100CSEAH	Imperial Wharf Rail Station	Fulham	-0.18282	51.47495	228	590	866
9100TTNHMHL	Tottenham Hale Rail Station	Tottenham Hale	-0.05992	51.58832	228	501	826
9400ZZDLABR	Abbey Road DLR Station	Stratford	0.00374	51.53193	227	498	828
9400ZZDLHEQ	Heron Quays DLR Station	Heron Quays	-0.02141	51.50338	226	562	855
9400ZZLUBZP	Belsize Park Underground Station	Belsize Park	-0.16464	51.55032	226	568	876
9400ZZLUCPN	Clapham North Underground Station	Clapham	-0.13001	51.46514	226	590	873
9100WHMDSTD	West Hampstead Rail Station	West Hampstead	-0.19118	51.54747	225	541	855
9100ECROYDN	East Croydon Rail Station	Croydon	-0.09278	51.37545	225	577	858
9400ZZLUFYR	Finchley Road Underground Station	Finchley Road	-0.17984	51.54683	224	587	878
9100HAGGERS	Haggerston Rail Station	Haggerston	-0.07566	51.53871	224	513	834
9100SHRDHST	Shoreditch High Street Rail Station	Shoreditch	-0.07524	51.52338	222	540	841
9400ZZLUWHP	West Hampstead Underground Station	West Hampstead	-0.19106	51.54664	222	564	869
9100NORWDJ	Norwood Junction Rail Station	South Norwood	-0.07522	51.39702	222	561	843
9400ZZDLWHM	West Ham DLR Station	West Ham	0.00449	51.5279	221	505	829
9100WHMPSTM	West Hampstead Thameslink Rail Station	West Hampstead	-0.19183	51.54848	221	554	860
9400ZZLUPAH	Paddington (H&C Line)-Underground	Paddington	-0.1783	51.51819	220	582	892
9400ZZLUSVS	Seven Sisters Underground Station	Seven Sisters	-0.07258	51.58334	220	540	854
9400ZZLUBXN	Brixton Underground Station	Brixton	-0.11488	51.46262	220	602	883
9400ZZLUWKA	Warwick Avenue Underground Station	Warwick Avenue	-0.18378	51.52327	219	556	879
9100LEWISHM	Lewisham Rail Station	Lewisham	-0.01402	51.46569	219	524	828
9100HERNEH	Herne Hill Rail Station	Herne Hill	-0.10228	51.45331	218	558	859
9100BROCKLY	Brockley Rail Station	Brockley	-0.03753	51.46465	217	545	845
9100HACKNYC	Hackney Central Rail Station	Hackney	-0.05605	51.54711	217	495	815
9100HRGY	Harringay Rail Station	Harringay	-0.10513	51.57736	216	518	847
9400ZZDLSTL	Star Lane DLR Station	Canning Town	0.00416	51.52079	216	499	827
9400ZZLUTFP	Tufnell Park Underground Station	Tufnell Park	-0.13843	51.55683	213	547	865
9100CMDNRD	Camden Road Rail Station	Camden Town	-0.1387	51.5418	213	517	847
9100BALHAM	Balham Rail Station	Balham	-0.15242	51.44323	213	550	855
9100HOXTON	Hoxton Rail Station	Hoxton	-0.07568	51.53152	213	524	838
9400ZZLUTMH	Tottenham Hale Underground Station	Tottenham Hale	-0.06023	51.58811	213	510	834
9100PKHMRYC	Peckham Rye Rail Station	Peckham	-0.06939	51.47004	212	539	819
9100NWCRELL	New Cross ELL Rail Station	New Cross	-0.03243	51.47635	211	523	821
9100WHAMHL	West Ham Rail Station	West Ham	0.00544	51.52849	210	490	819
9400ZZLUBBB	Bromley-by-Bow Underground Station	Bromley	-0.01153	51.52484	210	483	813
9400ZZDLALL	All Saints DLR Station	All Saints	-0.01313	51.511	209	500	821
9400ZZLULYN	Leyton Underground Station	Leyton	-0.00551	51.55659	208	458	800
9100SHMPSTD	South Hampstead Rail Station	South Hampstead	-0.17887	51.54144	208	547	856
9400ZZDLRVC	Royal Victoria DLR Station	Royal Victoria	0.01851	51.50934	207	496	826
9400ZZLUWCY	White City Underground Station	White City	-0.2243	51.51196	207	526	838
9100NEWXGEL	New Cross Gate ELL Rail Station	New Cross Gate/Sth Bermondsey	-0.04041	51.47513	206	524	821
9400ZZLUMRH	Manor House Underground Station	Manor House	-0.09611	51.57074	206	501	840
9100DEPTFD	Deptford Rail Station	Deptford	-0.02626	51.47885	205	560	857
9100CLPHHS	Clapham High Street Rail Station	Clapham	-0.13252	51.46548	205	577	862
9100HAKNYNM	Hackney Downs Rail Station	Hackney	-0.06081	51.54876	205	489	812
9100HONROPK	Honor Oak Park Rail Station	Honor Oak Park	-0.0455	51.44999	205	524	821
9100WANDCMN	Wandsworth Common Rail Station	Wandsworth Common	-0.16338	51.44619	205	574	866
9100ERLFLD	Earlsfield Rail Station	Earlsfield	-0.18771	51.44234	205	569	862
9100WDWTOWN	Wandsworth Town Rail Station	Wandsworth	-0.18812	51.46105	204	573	867
9100PCKHMRY	Peckham Rye Rail Station	Peckham	-0.06941	51.47004	204	530	815
9400ZZLUPLW	Plaistow Underground Station	Plaistow	0.01746	51.53135	203	482	813
9100MRYLAND	Maryland Rail Station	Stratford	0.00582	51.54609	203	458	793
9400ZZDLBOW	Bow Church DLR Station	Bow	-0.02093	51.52786	202	475	803
9100WLSDJHL	Willesden Junction Rail Station	Willesden	-0.24455	51.5325	202	514	817
9400ZZDLSOQ	South Quay DLR Station	South Quay	-0.01903	51.50056	202	534	835
9100BRBY	Brondesbury Rail Station	Brondesbury	-0.20231	51.54517	202	509	822
9100HOMRTON	Homerton Rail Station	Homerton	-0.04235	51.54702	202	468	786
9100TULSEH	Tulse Hill Rail Station	Tulse Hill	-0.10507	51.43986	201	511	803
9100BRIXTON	Brixton Rail Station	Brixton	-0.11418	51.4633	200	566	858
9100FNCHLYR	Finchley Road & Frognal Rail Station	West Hampstead	-0.18314	51.55027	200	512	820
9100ALEXNDP	Alexandra Palace Rail Station	Alexandra Palace	-0.12023	51.59793	200	489	835
9100GNWH	Greenwich Rail Station	Greenwich	-0.01333	51.47814	199	543	846
9100CAMHTH	Cambridge Heath (London) Rail Station	Bethnal Green	-0.05727	51.53198	199	476	804
9100LBGHJN	Loughborough Junction Rail Station	Brixton	-0.10218	51.4663	199	541	843
9400ZZLUBSC	Barons Court Underground Station	Barons Court	-0.21343	51.49032	198	544	833
9400ZZLUACY	Archway Underground Station	Archway	-0.13481	51.56548	198	520	852
9400ZZLUKOY	Kensington (Olympia) Underground Station	Olympia	-0.21001	51.49763	197	551	835
9400ZZLUWBN	West Brompton Underground Station	West Brompton	-0.1956	51.48727	197	560	839
9400ZZDLCLA	Crossharbour DLR Station	Crossharbour	-0.0146	51.49573	196	516	819
9100KNTSHTW	Kentish Town West Rail Station	Kentish Town	-0.14665	51.54655	195	501	822
9100LDYW	Ladywell Rail Station	Ladywell	-0.01903	51.45625	195	509	819
9400ZZLUMVL	Maida Vale Underground Station	Maida Vale	-0.18576	51.52978	195	516	852
9400ZZLURYO	Royal Oak Underground Station	Royal Oak	-0.18875	51.51912	194	532	857
9400ZZDLWSV	West Silvertown DLR Station	Silvertown	0.02247	51.50284	194	483	810
9100HACKNYW	Hackney Wick Rail Station	Hackney Wick	-0.02491	51.54342	194	446	776
9100GOSPLOK	Gospel Oak Rail Station	Gospel Oak	-0.15077	51.55534	193	493	809
9400ZZLUHTD	Hampstead Underground Station	Hampstead	-0.17848	51.55664	192	518	852
9100KLBRNHR	Kilburn High Road Rail Station	Kilburn	-0.19223	51.53728	191	513	835
9100STJOHNS	St Johns (London) Rail Station	St John's	-0.02271	51.46939	190	493	811
9100LONFLDS	London Fields Rail Station	Hackney	-0.05775	51.54116	190	469	797
9100WBRMPTN	West Brompton Rail Station	West Brompton	-0.19559	51.48707	190	559	847
9400ZZLUKBN	Kilburn Underground Station	Brondesbury	-0.2041	51.54681	190	515	834
9100NUNHEAD	Nunhead Rail Station	Nunhead	-0.05227	51.46683	189	495	789
9400ZZLUBLM	Balham Underground Station	Balham	-0.15299	51.44329	189	534	839
9100FRSTGT	Forest Gate Rail Station	Forest Gate	0.02436	51.54944	189	437	776
9400ZZDLCUS	Custom House (for ExCel) DLR Station	Custom House	0.02671	51.50972	188	479	810
9400ZZLUCPC	Clapham Common Underground Station	Clapham	-0.13831	51.46175	188	556	854
9100WNDSWRD	Wandsworth Road Rail Station	Clapham	-0.13852	51.47022	187	561	847
9100QPRK	Queens Park (London) Rail Station	Kensal Rise	-0.20498	51.53397	186	494	819
9100WDON	Wimbledon Rail Station	Wimbledon	-0.20637	51.42128	186	520	824
9400ZZDLDEV	Devons Road DLR Station	Devons Road	-0.01761	51.52267	186	466	795
9100HMPSTDH	Hampstead Heath Rail Station	Hampstead	-0.1657	51.55522	186	492	807
9400ZZLUWKN	West Kensington Underground Station	West Kensington	-0.20663	51.49046	185	533	825
9400ZZLUCPS	Clapham South Underground Station	Clapham South	-0.14758	51.45266	184	542	848
9100SELHRST	Selhurst Rail Station	Selhurst	-0.0883	51.39193	184	524	824
9100STRETHM	Streatham Rail Station	Streatham	-0.13155	51.42581	183	482	785
9100PUTNEY	Putney Rail Station	Putney	-0.21647	51.46131	183	556	841
9100BRBYPK	Brondesbury Park Rail Station	Brondesbury Park	-0.21013	51.5407	183	482	803
9400ZZLUKPK	Kilburn Park Underground Station	Kilburn Park	-0.19423	51.53498	182	489	820
9100FORESTH	Forest Hill Rail Station	Forest Hill	-0.05315	51.43928	180	494	798
9100CRKLWD	Cricklewood Rail Station	Cricklewood	-0.21267	51.55846	179	512	831
9100SYDENHM	Sydenham Rail Station	Sydenham	-0.05424	51.42725	178	497	795
9400ZZLULYS	Leytonstone Underground Station	Leytonstone	0.0082	51.56833	178	422	762
9100HRNSY	Hornsey Rail Station	Hornsey	-0.11197	51.58647	176	478	826
9400ZZALGWP	Emirates Greenwich Peninsula (Air Line terminal)	North Greenwich	0.00721	51.49927	174	497	817
9100SEVNSIS	Seven Sisters Rail Station	Seven Sisters	-0.07526	51.58227	173	474	806
9400ZZLUHSD	Hammersmith (Dist&Picc Line) Underground Station	Hammersmith	-0.22362	51.4923	173	509	822
9400ZZLUUPK	Upton Park Underground Station	Upton Park	0.03527	51.53535	173	445	777
9100BARKING	Barking Rail Station	Barking	0.08091	51.5395	172	420	747
9400ZZCRECR	East Croydon Tramlink Stop	Croydon	-0.09241	51.37486	172	515	810
9400ZZLUBLR	Blackhorse Road Underground Station	Blackhorse Road	-0.04114	51.58693	171	482	809
9400ZZLUWSP	Westbourne Park Underground Station	Westbourne Park	-0.20106	51.52111	171	488	835
9100KENR	Kensal Rise Rail Station	Kensal Rise	-0.21996	51.53456	170	465	794
9400ZZLUFBY	Fulham Broadway Underground Station	Fulham Broadway	-0.19542	51.48008	170	517	820
9400ZZLUEAN	East Acton Underground Station	East Acton	-0.24725	51.51662	169	462	796
9100EDULWCH	East Dulwich Rail Station	East Dulwich	-0.08057	51.4615	169	464	757
9100WLSDNJL	Willesden Junction Low Level Rail Station	Willesden	-0.24327	51.53203	169	442	783
9100WDULWCH	West Dulwich Rail Station	West Dulwich	-0.09137	51.44072	169	505	825
9100WNORWOD	West Norwood Rail Station	West Norwood	-0.10383	51.43175	168	485	773
9100ILFORD	Ilford Rail Station	Ilford	0.06969	51.55912	168	404	735
9400ZZLULAD	Ladbroke Grove Underground Station	Ladbroke Grove	-0.21039	51.51745	167	471	817
9100MANRPK	Manor Park Rail Station	Manor Park	0.04635	51.55248	167	403	733
9400ZZDLMUD	Mudchute DLR Station	Mudchute	-0.01473	51.49071	167	469	786
9400ZZLULRD	Latimer Road Underground Station	Latimer Road	-0.2178	51.51339	166	463	807
9100RCTRYRD	Rectory Road Rail Station	Stoke Newington	-0.06826	51.55851	165	443	786
9400ZZDLLEW	Lewisham DLR Station	Lewisham	-0.01287	51.46467	165	459	785
9400ZZLUTNG	Turnham Green Underground Station	Turnham Green	-0.25455	51.49515	165	447	777
9100CFPK	Crofton Park Rail Station	Brockley	-0.0365	51.45519	165	463	768
9400ZZLUWLA	Wood Lane Underground Station	Shepherd's Bush	-0.22453	51.50967	165	461	807
9100CRYSTLP	Crystal Palace Rail Station	Crystal Palace	-0.0726	51.41811	164	474	768
9400ZZLUWIG	Willesden Green Underground Station	Willesden Green	-0.22153	51.54915	163	471	806
9400ZZDLGRE	Greenwich DLR Station	Greenwich	-0.01367	51.47809	163	467	785
9400ZZDLELV	Elverson Road DLR Station	Elverson Road	-0.01672	51.46908	161	447	774
9400ZZLURVP	Ravenscourt Park Underground Station	Ravenscourt Park	-0.23588	51.49413	161	459	787
9400ZZLUQPS	Queen's Park Underground Station	Queens Park	-0.20457	51.53416	161	467	795
9400ZZLUSBM	Shepherd's Bush Market Underground Station	Shepherd's Bush	-0.22637	51.50558	160	454	803
9100BOWESPK	Bowes Park Rail Station	Wood Green	-0.12058	51.60702	159	453	804
9100NDULWCH	North Dulwich Rail Station	Dulwich Village	-0.08791	51.45451	159	454	750
9100STOTNHM	South Tottenham Rail Station	South Tottenham	-0.0721	51.58038	159	458	776
9400ZZDLPDK	Pontoon Dock DLR Station	Silvertown	0.03212	51.50222	158	448	775
9100ESTFLDS	Mitcham Eastfields Rail Station	Mitcham	-0.15464	51.40774	158	473	789
9400ZZLUHGT	Highgate Underground Station	Highgate	-0.14585	51.57754	158	464	810
9100STRHILL	Streatham Hill Rail Station	Streatham Hill	-0.12716	51.4382	158	476	791
9100STKNWNG	Stoke Newington Rail Station	Stoke Newington	-0.07288	51.56524	158	432	780
9400ZZLUWJN	Willesden Junction Underground Station	Willesden Junction	-0.24428	51.53226	157	432	771
9100WIMBLDN	Wimbledon Rail Station	Wimbledon	-0.20638	51.42128	157	465	769
9100HTHRGRN	Hither Green Rail Station	Hither Green	-0.00094	51.45203	157	486	804
9100BLKHTH	Blackheath Rail Station	Blackheath	0.00888	51.4658	156	455	786
9400ZZDLDEP	Deptford Bridge DLR Station	Deptford Bridge	-0.02243	51.47422	155	449	768
9100STMFDHL	Stamford Hill Rail Station	Stamford Hill	-0.07668	51.57447	155	440	779
9100KENSLG	Kensal Green Rail Station	Kensal Green	-0.22509	51.53055	154	437	776
9400ZZLUHSC	Hammersmith (H&C Line) Underground Station	Hammersmith	-0.22501	51.49354	154	447	790
9400ZZLUSFB	Stamford Brook Underground Station	Stamford Brook	-0.2457	51.49492	154	434	775
9400ZZLUWIM	Wimbledon Underground Station	Wimbledon	-0.20652	51.42136	154	469	779
9100WNSTDPK	Wanstead Park Rail Station	Forest Gate	0.02622	51.5517	153	378	675
9100SYDNHMH	Sydenham Hill Rail Station	Dulwich	-0.08033	51.43272	153	481	801
9400ZZLUGHK	Goldhawk Road Underground Station	Goldhawk Road	-0.22671	51.50201	153	436	784
9400ZZLUNAN	North Acton Underground Station	North Acton	-0.25975	51.52353	151	433	776
9100CRLN	Charlton Rail Station	Charlton	0.03127	51.48682	151	439	764
9100HARLSDN	Harlesden Rail Station	Harlesden	-0.25767	51.53629	151	405	748
9100WLTHQRD	Walthamstow Queens Road Rail Station	Walthamstow	-0.02384	51.58151	151	421	718
9400ZZDLPRE	Prince Regent DLR Station	Prince Regent	0.03417	51.50927	150	441	775
9100CLAPTON	Clapton Rail Station	Upper Clapton	-0.05702	51.56165	149	421	768
9400ZZLUTPN	Turnpike Lane Underground Station	Turnpike Lane	-0.10295	51.59028	149	440	797
9400ZZLUACT	Acton Town Underground Station	Acton Town	-0.28046	51.50306	148	384	738
9400ZZCRWMB	Wimbledon Tramlink Stop	Wimbledon	-0.20581	51.42105	148	462	768
9400ZZLUEHM	East Ham Underground Station	East Ham	0.0512	51.53895	148	411	740
9100STRHCOM	Streatham Common Rail Station	Streatham Vale	-0.13601	51.41873	148	452	776
9400ZZLUPSG	Parsons Green Underground Station	Parsons Green	-0.20117	51.47528	147	469	794
9100LYTNSHR	Leytonstone High Road Rail Station	Leytonstone	0.00842	51.56356	147	391	669
9100NEWSGAT	New Southgate Rail Station	New Southgate	-0.14303	51.61412	147	432	785
9100RICHMND	Richmond (London) Rail Station	Richmond	-0.30156	51.46306	147	504	792
9100WCROYDN	West Croydon Rail Station	Croydon	-0.10258	51.37843	146	482	784
9100BRUCGRV	Bruce Grove Rail Station	Bruce Grove	-0.06986	51.59397	146	424	760
9100BLCHSRD	Blackhorse Road Rail Station	Walthamstow	-0.04123	51.58661	146	442	750
9100CATFORD	Catford Rail Station	Catford	-0.02631	51.44441	145	436	734
9100LEYTNMR	Leyton Midland Road Rail Station	Leyton	-0.00804	51.56973	145	394	667
9100PENEW	Penge West Rail Station	Penge & Sydenham	-0.06083	51.41756	144	476	772
9400ZZLUTBC	Tooting Bec Underground Station	Tooting Bec	-0.15973	51.43568	143	492	800
9100SCROYDN	South Croydon Rail Station	South Croydon	-0.09345	51.36297	143	491	788
9100HROW	Harrow & Wealdstone Rail Station	Harrow	-0.33457	51.59217	142	434	762
9400ZZLUWWL	Walthamstow Central Underground Station	Walthamstow Central	-0.01988	51.58297	142	441	764
9400ZZDLISL	Island Gardens DLR Station	Island Gardens	-0.01013	51.48781	142	453	762
9400ZZLUBKG	Barking Underground Station	Barking	0.08106	51.53933	140	381	697
9100GIPSYH	Gipsy Hill Rail Station	West Dulwich	-0.08383	51.42446	140	436	727
9100UPRHLWY	Upper Holloway Rail Station	Upper Holloway	-0.12951	51.56364	140	446	783
9100EALINGB	Ealing Broadway Rail Station	Ealing	-0.30175	51.51485	139	396	735
9100CATFBDG	Catford Bridge Rail Station	Catford	-0.02478	51.44474	139	418	730
9100HRGYGL	Harringay Green Lanes Rail Station	Harringay	-0.09814	51.57719	139	434	738
9400ZZDLCUT	Cutty Sark (for Maritime Greenwich) DLR Station	Greenwich	-0.0108	51.48167	139	439	754
9100RAYNSPK	Raynes Park Rail Station	Raynes Park	-0.23015	51.40918	138	459	770
9100CROUCHH	Crouch Hill Rail Station	Crouch Hill	-0.11714	51.57131	138	435	741
9100MAZEH	Maze Hill Rail Station	Greenwich	0.00292	51.48263	138	457	782
9400ZZLUPYB	Putney Bridge Underground Station	Putney Bridge	-0.20873	51.46827	136	444	772
9100BARNES	Barnes Rail Station	Barnes	-0.24216	51.46709	136	497	798
9100HYDNSRD	Haydons Road Rail Station	South Wimbledon	-0.18881	51.42545	136	429	736
9400ZZLUGBY	Gunnersbury Underground Station	Gunnersbury	-0.27527	51.49181	136	400	728
9400ZZDLLCA	London City Airport DLR Station	Silvertown	0.04875	51.50342	136	417	732
9400ZZLUWSD	Wanstead Underground Station	Wanstead	0.02854	51.57551	135	370	693
9400ZZDLRAL	Royal Albert DLR Station	Royal Albert	0.04594	51.50836	135	428	752
9400ZZCRLEB	Lebanon Road Tramlink Stop	Addiscombe	-0.085	51.3752	135	471	770
9400ZZLUCWP	Chiswick Park Underground Station	Chiswick Park	-0.26797	51.49463	135	387	735
9400ZZLUSNB	Snaresbrook Underground Station	Snaresbrook	0.02145	51.58068	135	370	693
9100GNRSBRY	Gunnersbury Rail Station	Gunnersbury	-0.27529	51.49168	135	385	711
9100ROMFORD	Romford Rail Station	Romford	0.18325	51.57483	135	392	701
9400ZZLUHSN	Harlesden Underground Station	Harlesden	-0.25788	51.53632	135	375	726
9100HDON	Hendon Rail Station	Hendon	-0.23867	51.58007	134	441	782
9400ZZCRWEL	Wellesley Road Tramlink Stop	Croydon	-0.09755	51.37537	134	469	768
9400ZZALRDK	Emirates Royal Docks (Air Line terminal)	Royal Victoria	0.01766	51.50778	133	423	753
9400ZZLUEPY	East Putney Underground Station	East Putney	-0.211	51.45921	133	433	743
9100STNBGPK	Stonebridge Park Rail Station	Stonebridge	-0.27583	51.54412	133	375	713
9100ANERLEY	Anerley Rail Station	Anerley	-0.06588	51.41215	133	460	753
9400ZZCRDDR	Dundonald Road Tramlink Stop	Wimbledon	-0.20768	51.41756	133	440	753
9400ZZLUDOH	Dollis Hill Underground Station	Dudden Hill	-0.23907	51.55196	133	426	765
9400ZZLUECM	Ealing Common Underground Station	Ealing Common	-0.28827	51.51015	132	338	686
9100ACTONML	Acton Main Line Rail Station	Acton	-0.26676	51.51719	132	390	730
9100WLTWCEN	Walthamstow Central Rail Station	Walthamstow	-0.01981	51.58293	131	414	738
9100STJMSST	St James Street (London) Rail Station	Walthamstow	-0.03291	51.58099	131	413	749
9100PNGEE	Penge East Rail Station	Penge & Sydenham	-0.05421	51.41934	131	457	781
9400ZZLUKSL	Kensal Green Underground Station	Kensal Green	-0.22501	51.53054	130	387	739
9100TOOTING	Tooting Rail Station	Tooting	-0.16127	51.41985	130	403	720
9100SACTON	South Acton Rail Station	South Acton	-0.27016	51.4997	128	362	695
9100WDGRNPK	Woodgrange Park Rail Station	Manor Park	0.04443	51.54927	128	357	674
9400ZZLUGGN	Golders Green Underground Station	Golders Green	-0.19404	51.57227	127	430	789
9400ZZLUEBY	Ealing Broadway Underground Station	Ealing Broadway	-0.30146	51.51502	127	349	703
9400ZZLUWYP	Wembley Park Underground Station	Wembley Park	-0.27926	51.5632	127	385	723
9400ZZLUWTA	West Acton Underground Station	West Acton	-0.28098	51.51801	126	381	724
9100ACTNCTL	Acton Central Rail Station	Acton	-0.26297	51.50872	126	367	696
9400ZZCRWCR	West Croydon Tramlink Stop	Croydon	-0.1017	51.37897	126	421	737
9400ZZDLBPK	Beckton Park DLR Station	Beckton Park	0.05494	51.5088	125	406	732
9100PALMRSG	Palmers Green Rail Station	Palmers Green	-0.11043	51.61832	124	408	764
9100NMBRLPK	Northumberland Park Rail Station	Northumberland Park	-0.05392	51.60198	123	404	730
9400ZZLUSFS	Southfields Underground Station	Southfields	-0.2066	51.44508	123	410	729
9400ZZCRSAN	Sandilands Tramlink Stop	Addiscombe	-0.07804	51.37502	122	452	757
9100PNDRSEN	Ponders End Rail Station	Ponders End	-0.03507	51.64226	122	395	701
9100THTH	Thornton Heath Rail Station	Thornton Heath	-0.1003	51.39878	121	397	716
9100WMBYDC	Wembley Central Rail Station	Wembley	-0.29642	51.55233	119	347	668
9400ZZLUWIP	Wimbledon Park Underground Station	Wimbledon Park	-0.19972	51.43458	118	419	729
9100WCOMBEP	Westcombe Park Rail Station	Charlton	0.0184	51.48421	118	422	751
9100SURBITN	Surbiton Rail Station	Surbiton	-0.30396	51.39246	118	474	799
9100BELNGHM	Bellingham Rail Station	Bellingham	-0.01932	51.43292	118	395	701
9400ZZLUSGP	Stonebridge Park Underground Station	Stonebridge Park	-0.27589	51.54396	117	346	672
9100WEMBLSM	Wembley Stadium Rail Station	Wembley	-0.28561	51.55442	117	359	700
9100NWEMBLY	North Wembley Rail Station	Wembley	-0.30398	51.5626	117	342	657
9100WHHRTLA	White Hart Lane Rail Station	Tottenham	-0.07091	51.60504	117	383	713
9100MITCHMJ	Mitcham Junction Rail Station	Mitcham	-0.15775	51.39295	116	365	682
9100LSYDNHM	Lower Sydenham Rail Station	Sydenham	-0.03334	51.42483	116	375	684
9100NORBURY	Norbury Rail Station	Norbury	-0.12192	51.41145	115	392	705
9100WIMLCHS	Wimbledon Chase Rail Station	Bushey Mead	-0.21403	51.40956	115	399	714
9400ZZDLKGV	King George V DLR Station	Silvertown	0.06263	51.50201	115	387	695
9100SDBRYHH	Sudbury Hill Harrow Rail Station	Sudbury Hill	-0.3358	51.55847	115	354	688
9400ZZLUKWG	Kew Gardens Underground Station	Kew Gardens	-0.28524	51.47706	115	378	699
9100GLGC	Glasgow Central Rail Station	Glasgow	-4.25764	55.85974	115	179	212
9400ZZLUNEN	North Ealing Underground Station	North Ealing	-0.28887	51.51751	114	317	641
9400ZZLUHGR	Hanger Lane Underground Station	Hanger Lane	-0.2927	51.53018	113	370	714
9400ZZCRMTP	Merton Park Tramlink Stop	Merton	-0.20122	51.41359	113	395	712
9400ZZLUWOG	Wood Green Underground Station	Wood Green	-0.10988	51.59749	113	403	756
9100NEWMLDN	New Malden Rail Station	New Malden	-0.25594	51.40408	111	384	708
9400ZZLUNDN	Neasden Underground Station	Neasden	-0.24984	51.55399	111	382	731
9100STHALL	Southall Rail Station	Southall	-0.37861	51.50596	111	334	676
9400ZZLURMD	Richmond Underground Station	Richmond	-0.30134	51.46324	110	400	715
9400ZZLUPKR	Park Royal Underground Station	Park Royal	-0.28434	51.52713	110	298	608
9400ZZDLCYP	Cyprus DLR Station	Cyprus	0.06393	51.50848	109	386	709
9100KENTHOS	Kent House Rail Station	Penge & Sydenham	-0.04524	51.41222	109	417	735
9400ZZCRCTR	Centrale Tramlink Stop	Croydon	-0.10391	51.37577	108	373	692
9400ZZLUTBY	Tooting Broadway Underground Station	Tooting Broadway	-0.16837	51.42763	108	443	766
9100MLHB	Mill Hill Broadway Rail Station	Mill Hill	-0.24924	51.6131	107	392	742
9400ZZLUEFY	East Finchley Underground Station	East Finchley	-0.16501	51.58714	107	391	758
9400ZZLUSWF	South Woodford Underground Station	South Woodford	0.02735	51.59191	106	338	647
9400ZZCRADD	Addiscombe Tramlink Stop	Addiscombe	-0.07324	51.37981	106	408	724
9100RICHNLL	Richmond NLL Rail Station	Richmond	-0.30141	51.46315	105	399	719
9100WOLWCHA	Woolwich Arsenal Rail Station	Woolwich	0.0692	51.48991	105	367	653
9100SDSD	Sanderstead Rail Station	Sanderstead	-0.09367	51.34828	105	440	749
9100WMBY	Wembley Central Rail Station	Wembley	-0.29643	51.55233	105	355	677
9400ZZCRCEN	George Street Tramlink Stop	Croydon	-0.09874	51.37398	105	405	726
9400ZZLURBG	Redbridge Underground Station	Redbridge	0.04537	51.57625	104	338	647
9100SKENTON	South Kenton Rail Station	South Kenton	-0.30846	51.57022	104	344	648
9100BCKNHMH	Beckenham Hill Rail Station	Southend	-0.01594	51.42458	104	361	673
9400ZZLUALP	Alperton Underground Station	Alperton	-0.29961	51.54063	104	273	566
9400ZZCRMDN	Morden Road Tramlink Stop	Merton Park	-0.19283	51.40888	103	349	672
9100PURLEYO	Purley Oaks Rail Station	Purley	-0.09885	51.34705	103	418	734
9100BROMLYS	Bromley South Rail Station	Bromley	0.01735	51.39998	103	402	768
9100WDST	Wood Street Rail Station	Upper Walthamstow	-0.0024	51.58659	103	384	697
9100OKLGHPK	Oakleigh Park Rail Station	Oakleigh Park	-0.16621	51.63769	103	372	708
9100PURLEY	Purley Rail Station	Purley	-0.11403	51.33758	103	423	740
9400ZZLUPRD	Preston Road Underground Station	Preston	-0.29511	51.57198	102	342	667
9100KTON	Kenton Rail Station	Kenton	-0.31698	51.58181	102	345	662
9100GLGCLL	Glasgow Central Low Level Rail Station	Glasgow	-4.25848	55.85867	101	165	208
9400ZZLUUPY	Upney Underground Station	Upney	0.10154	51.53838	101	324	623
9100SVNKNGS	Seven Kings Rail Station	Seven Kings	0.09711	51.56403	101	334	632
9400ZZCRMJT	Mitcham Junction Tramlink Stop	Mitcham	-0.15826	51.39287	101	322	631
9100MOTSPRP	Motspur Park Rail Station	West Barnes	-0.23953	51.3952	101	386	705
9100SHRTLND	Shortlands Rail Station	Shortlands	0.00179	51.4058	101	363	682
9100ARGYLST	Argyle Street Rail Station	Glasgow	-4.25069	55.85729	101	167	209
9100KEWGRDN	Kew Gardens Rail Station	Kew	-0.28505	51.47708	100	360	677
9100SMERTON	South Merton Rail Station	Merton Park	-0.20516	51.40299	100	351	672
9400ZZCRBGV	Belgrave Walk Tramlink Stop	Morden	-0.17851	51.40096	100	317	627
9100ENFC	Enfield Chase Rail Station	Enfield Town	-0.09069	51.65326	99	367	713
9400ZZDLGAL	Gallions Reach DLR Station	Gallions Reach	0.07156	51.50894	99	366	694
9400ZZCRMCH	Mitcham Tramlink Stop	Mitcham	-0.1709	51.39749	99	316	619
9100GLGQHL	Glasgow Queen Street Rail Station	Glasgow	-4.25145	55.86217	99	169	218
9100POTRSBR	Potters Bar Rail Station	Potters Bar	-0.1926	51.69707	98	373	709
9400ZZCRPHI	Phipps Bridge Tramlink Stop	Morden	-0.18231	51.40338	98	319	636
9100EDMNGRN	Edmonton Green Rail Station	Lower Edmonton	-0.06111	51.62494	98	345	675
9400ZZLUWYC	Wembley Central Underground Station	Wembley	-0.29685	51.55231	98	314	618
9100BIRKBCK	Birkbeck Rail Station	Anerley	-0.05573	51.40389	97	362	664
9100WNMHILL	Winchmore Hill Rail Station	Winchmore Hill	-0.10089	51.63395	97	365	713
9100ANDRSTN	Anderston Rail Station	Glasgow	-4.27097	55.85988	97	165	208
9400ZZDLWLA	Woolwich Arsenal DLR Station	Woolwich	0.06914	51.49001	97	337	625
9100BNSBDGE	Barnes Bridge Rail Station	Barnes	-0.25263	51.47201	97	437	742
9100SUTTON	Sutton (London) Rail Station	Sutton	-0.19121	51.35953	97	325	631
9100WOLWCDY	Woolwich Dockyard Rail Station	Woolwich	0.05465	51.49113	96	362	674
9400ZZCRBED	Beddington Lane Tramlink Stop	Beddington Corner	-0.14216	51.38924	96	295	597
9400ZZLUCSD	Colliers Wood Underground Station	Collier's Wood	-0.17808	51.41816	96	401	719
9100BRIMSDN	Brimsdown Rail Station	Brimsdown	-0.03081	51.65559	96	356	654
9100GRVPK	Grove Park Rail Station	Grove Park	0.02173	51.43087	96	401	745
9100EXHIBTC	Exhibition Centre (Glasgow) Rail Station	Finnieston	-4.28358	55.86154	96	164	206
9100GLGQLL	Glasgow Queen Street Low Level Rail Station	Glasgow	-4.25064	55.86233	95	169	213
9100RBRN	Ravensbourne Rail Station	Bromley Park	-0.00755	51.41419	95	343	661
9100HKBG	Hackbridge Rail Station	Hackbridge	-0.1539	51.37787	95	303	628
9100SIVRST	Silver Street Rail Station	Edmonton	-0.06723	51.6147	95	345	674
9400ZZLUBDS	Bounds Green Underground Station	Wood Green	-0.12423	51.60704	94	358	701
9100HROWDC	Harrow & Wealdstone Rail Station	Harrow	-0.33457	51.59218	94	343	652
9100NBCKNHM	New Beckenham Rail Station	New Beckenham	-0.03527	51.41677	94	357	652
9100BRIDGTN	Bridgeton Rail Station	Bridgeton	-4.22605	55.84895	94	157	206
9100BCKNHMJ	Beckenham Junction Rail Station	Beckenham	-0.02581	51.41104	94	380	702
9100CLOCKHS	Clock House Rail Station	Beckenham	-0.04065	51.40859	93	346	641
9100UPMNSTR	Upminster Rail Station	Upminster	0.25089	51.55902	93	294	575
9400ZZLUNWY	North Wembley Underground Station	North Wembley	-0.304	51.56256	93	301	608
9100PTCK	Partick Rail Station	Partick	-4.3088	55.86987	93	162	206
9400ZZLUNKP	Northwick Park Underground Station	Northwick Park	-0.31806	51.57849	93	309	603
9100GLGHST	High Street (Glasgow) Rail Station	Glasgow	-4.24011	55.85955	92	166	212
9400ZZLUSUT	Sudbury Town Underground Station	Sudbury Town	-0.31575	51.55082	92	255	521
9100TWCKNHM	Twickenham Rail Station	Twickenham	-0.3304	51.45003	92	387	703
9100CRSHLTN	Carshalton Rail Station	Carshalton	-0.16637	51.36845	92	288	601
9400ZZCRBLA	Blackhorse Lane Tramlink Stop	Woodside	-0.07056	51.38476	91	373	687
9100NTHOLTP	Northolt Park Rail Station	Northolt	-0.35947	51.55755	91	299	613
9400ZZLUHOH	Harrow-on-the-Hill Underground Station	Harrow	-0.33723	51.5792	91	290	559
9400ZZCRWOD	Woodside Tramlink Stop	Woodside	-0.06536	51.3871	91	358	675
9100HAROOTH	Harrow-on-the-Hill Rail Station	Harrow on the Hill	-0.33723	51.57919	91	297	609
9100LEEE	Lee Rail Station	Lee	0.0135	51.44976	90	362	694
9100WEALING	West Ealing Rail Station	West Ealing	-0.32013	51.51351	90	299	612
9100KIDBROK	Kidbrooke Rail Station	Kidbrooke	0.02751	51.46212	90	367	699
9400ZZCRLOY	Lloyd Park Tramlink Stop	South Croydon	-0.08077	51.36428	90	369	690
9100HAYESAH	Hayes & Harlington Rail Station	Hayes Town	-0.42067	51.5031	90	300	610
9100WADDON	Waddon Rail Station	Waddon	-0.11733	51.3674	90	347	666
9400ZZLUPVL	Perivale Underground Station	Perivale	-0.32345	51.53672	90	327	675
9400ZZLUSEA	South Ealing Underground Station	South Ealing	-0.30742	51.50101	89	300	621
9100DLMRNOK	Dalmarnock Rail Station	Dalmarnock	-4.2177	55.84207	89	151	202
9400ZZCRBRD	Beckenham Road Tramlink Stop	Penge & Sydenham	-0.04341	51.40953	89	327	644
9400ZZCRARA	Arena Tramlink Stop	Woodside	-0.05834	51.39153	89	343	648
9400ZZLUGTH	Gants Hill Underground Station	Gants Hill	0.06619	51.57655	89	308	594
9100GODMAYS	Goodmayes Rail Station	Goodmayes	0.11082	51.56558	88	306	578
9400ZZCRELM	Elmers End Tramlink Stop	Elmers End	-0.04982	51.39792	88	323	631
9400ZZLUWOF	Woodford Underground Station	Woodford	0.03398	51.60691	88	308	594
9400ZZLUKEN	Kenton Underground Station	Kenton	-0.31691	51.58176	88	323	622
9400ZZLUSKT	South Kenton Underground Station	South Kenton	-0.30843	51.57024	88	312	612
9100COLSDNS	Coulsdon South Rail Station	Coulsdon	-0.13788	51.31584	87	383	704
9100CHISWCK	Chiswick Rail Station	Chiswick	-0.26783	51.48114	87	402	712
9100WATFDJ	Watford Junction Rail Station	Watford	-0.39593	51.66391	87	365	691
9100CHRNGXG	Charing Cross (Glasgow) Rail Station	Glasgow	-4.26981	55.86467	86	157	208
9100RTHGLEN	Rutherglen Rail Station	Rutherglen	-4.2121	55.83059	86	147	203
9400ZZLUBTX	Brent Cross Underground Station	Brent Cross	-0.21362	51.57666	85	368	731
9400ZZCRCHR	Church Street Tramlink Stop	Croydon	-0.10436	51.37371	85	335	661
9100NSHEEN	North Sheen Rail Station	North Sheen	-0.28788	51.46516	85	359	687
9100NWELTHM	New Eltham Rail Station	New Eltham	0.07054	51.43806	85	375	714
9100MORDENS	Morden South Rail Station	Morden	-0.19946	51.39612	85	304	635
9100BHILLPK	Bush Hill Park Rail Station	Bush Hill Park	-0.06921	51.64153	85	313	624
9100BLGRVE	Bellgrove Rail Station	Gallowgate	-4.22437	55.85669	84	157	206
9400ZZCRTPA	Therapia Lane Tramlink Stop	Broad Green	-0.12904	51.3857	84	270	570
9100BCKNMJC	Beckenham Junction Rail Station	Beckenham	-0.02602	51.41117	84	347	640
9100SDBRYHR	Sudbury & Harrow Road Rail Station	Sudbury	-0.31547	51.5544	84	342	679
9100DGNHMDC	Dagenham Dock Rail Station	Dagenham	0.14612	51.52609	83	290	576
9400ZZLUSUH	Sudbury Hill Underground Station	Sudbury Hill	-0.33644	51.55695	83	240	476
9100MRTLKE	Mortlake Rail Station	Mortlake	-0.26711	51.46809	83	382	703
9100NBARNET	New Barnet Rail Station	New Barnet	-0.17299	51.64857	83	329	661
9100ELTR	Elstree & Borehamwood Rail Station	Borehamwood	-0.28008	51.65307	83	351	698
9100WALHAMX	Waltham Cross Rail Station	Waltham Cross	-0.02655	51.68507	83	343	633
9400ZZLUHAW	Harrow & Wealdstone Underground Station	Harrow & Wealdstone	-0.33522	51.59227	83	341	644
9400ZZLUSWN	South Wimbledon Underground Station	South Wimbledon	-0.192	51.41531	83	359	677
9400ZZLUNFD	Northfields Underground Station	Northfields	-0.31472	51.49932	82	286	604
9400ZZLUBEC	Becontree Underground Station	Dagenham	0.12703	51.54034	82	288	576
9100CRSHLTB	Carshalton Beeches Rail Station	Carshalton Beeches	-0.16979	51.35741	82	287	605
9100ELMERSE	Elmers End Rail Station	Elmers End	-0.04943	51.3983	81	320	626
9100HYNDLND	Hyndland Rail Station	Hyndland	-4.31466	55.87974	81	151	201
9400ZZCRWAD	Waddon Marsh Tramlink Stop	Waddon	-0.11801	51.37708	80	295	606
9400ZZCRWAN	Wandle Park Tramlink Stop	Waddon	-0.11328	51.3734	80	326	645
9400ZZCRAVE	Avenue Road Tramlink Stop	Penge & Sydenham	-0.04947	51.4068	80	313	631
9100STMGTS	St Margarets (London) Rail Station	St Margarets	-0.3202	51.45524	80	351	677
9100KEWBDGE	Kew Bridge Rail Station	Gunnersbury	-0.28711	51.48952	80	370	693
9100SHLIER	St Helier (London) Rail Station	Morden Park	-0.19877	51.3899	79	274	596
9100SRUISLP	South Ruislip Rail Station	South Ruislip	-0.39925	51.55693	79	288	590
9100PLKLHDE	Pollokshields East Rail Station	Pollokshields	-4.2686	55.84105	79	153	204
9100CHDWLHT	Chadwell Heath Rail Station	Chadwell Heath	0.12897	51.56804	78	303	583
9100DRAYGRN	Drayton Green Rail Station	Hanwell	-0.3302	51.51662	78	270	564
9100GORDONH	Gordon Hill Rail Station	Clay Hill	-0.0946	51.66334	78	340	666
9400ZZCRHAR	Harrington Road Tramlink Stop	South Norwood	-0.06072	51.39979	78	311	623
9400ZZLUGFD	Greenford Underground Station	Greenford	-0.34605	51.54243	77	290	623
9100PLMS	Plumstead Rail Station	Plumstead	0.08427	51.4898	77	285	592
9100GRPK	Grange Park Rail Station	Grange Park	-0.09735	51.64262	77	337	664
9100RDLSDWN	Riddlesdown Rail Station	Purley	-0.09938	51.33249	77	367	685
9400ZZDLBEC	Beckton DLR Station	Beckton	0.06146	51.51437	77	327	643
9100WALNGTN	Wallington Rail Station	Wallington	-0.15083	51.36039	77	301	615
9400ZZCRBIR	Birkbeck Tramlink Stop	Anerley	-0.05578	51.40377	77	309	626
9400ZZLUASG	Arnos Grove Underground Station	Arnos Grove	-0.13306	51.61645	76	321	653
9100WHTTON	Whitton Rail Station	Whitton	-0.35768	51.44961	76	338	671
9400ZZCRAMP	Ampere Way Tramlink Stop	Broad Green	-0.12365	51.3823	76	265	572
9100WRCSTRP	Worcester Park Rail Station	Worcester Park	-0.24517	51.38125	76	313	653
9100ABWD	Abbey Wood (London) Rail Station	Abbey Wood	0.12141	51.49107	76	279	578
9400ZZLUSHH	South Harrow Underground Station	South Harrow	-0.35249	51.56489	76	226	443
9100WSUTTON	West Sutton Rail Station	Sutton	-0.20517	51.36585	76	252	546
9100QUNPARK	Queens Park (Glasgow) Rail Station	Queen's Park	-4.26674	55.83529	75	148	202
9100PLKLHDW	Pollokshields West Rail Station	Pollokshields	-4.27575	55.83768	74	148	202
9100BICKLEY	Bickley Rail Station	Bickley	0.04525	51.40011	74	322	673
9100CRSMYLF	Crossmyloof Rail Station	Crossmyloof	-4.28431	55.83393	74	148	202
9100MAXWLPK	Maxwell Park Rail Station	Crossmyloof	-4.28869	55.83771	73	145	197
9400ZZCRBEK	Beckenham Junction Tramlink Stop	Beckenham	-0.02639	51.41073	73	309	620
9100BHAMNWS	Birmingham New Street Rail Station	Birmingham	-1.89836	52.47779	73	117	147
9400ZZLURYL	Rayners Lane Underground Station	Rayners Lane	-0.37113	51.57515	72	241	462
9400ZZLUNHA	North Harrow Underground Station	North Harrow	-0.36241	51.58487	72	240	502
9400ZZLUMDN	Morden Underground Station	Morden	-0.19484	51.40214	71	312	634
9100SBURY	Southbury Rail Station	Enfield	-0.05243	51.64871	71	292	607
9100ORPNGTN	Orpington Rail Station	Orpington	0.0891	51.3733	71	370	724
9100DUMBRCK	Dumbreck Rail Station	Dumbreck	-4.30123	55.84463	71	148	202
9100BRLANDS	Berrylands Rail Station	Berrylands	-0.28071	51.39905	70	321	667
9100SHENFLD	Shenfield Rail Station	Shenfield	0.32985	51.63088	70	298	565
9100CHESHNT	Cheshunt Rail Station	Cheshunt	-0.02395	51.70288	70	327	610
9100PSLYGST	Paisley Gilmour Street Rail Station	Paisley	-4.4245	55.84734	69	157	197
9100DUKEST	Duke Street Rail Station	Dennistoun	-4.21304	55.85842	69	149	200
9100CMBSLNG	Cambuslang Rail Station	Cambuslang	-4.173	55.8196	69	139	194
9100JORDANH	Jordanhill Rail Station	Jordanhill	-4.32491	55.88269	69	144	193
9100REDHILL	Redhill Rail Station	Redhill	-0.1659	51.2402	69	338	691
9100CHEAM	Cheam Rail Station	Cheam	-0.21417	51.35548	69	263	571
9400ZZLUHCL	Hendon Central Underground Station	Hendon Central	-0.22642	51.58331	69	321	675
9400ZZLUWHW	West Harrow Underground Station	West Harrow	-0.3534	51.57972	69	244	486
9100SUTTONC	Sutton Common Rail Station	Benhilton	-0.19634	51.37489	69	241	548
9100NRBITON	Norbiton Rail Station	Norbiton	-0.28403	51.41236	68	280	629
9100BHAMMRS	Birmingham Moor Street Rail Station	Birmingham	-1.89247	52.47909	68	110	138
9100CNTY	Carntyne Rail Station	Carntyne	-4.17856	55.85486	68	144	197
9100CDNL	Cardonald Rail Station	Cardonald	-4.34069	55.85255	68	154	198
9100MNCRPIC	Manchester Piccadilly Rail Station	Manchester City Centre	-2.23091	53.47737	68	133	212
9100PLKSHWW	Pollokshaws West Rail Station	Pollokshaws	-4.3016	55.82381	68	140	196
9100CROSSHL	Crosshill Rail Station	Govanhill	-4.2568	55.83327	68	140	196
9400ZZLURVY	Roding Valley Underground Station	Woodford	0.04366	51.61721	68	271	540
9100ANSL	Anniesland Rail Station	Anniesland	-4.32195	55.88934	68	143	193
9100MNCROXR	Manchester Oxford Road Rail Station	Manchester City Centre	-2.242	53.47404	67	135	211
9100ENFLDLK	Enfield Lock Rail Station	Enfield Lock	-0.02852	51.67093	67	324	609
9100STLEIGH	Stoneleigh Rail Station	Stoneleigh	-0.24867	51.3634	67	278	615
9100BUSHEY	Bushey Rail Station	Bushey	-0.38475	51.64558	67	335	646
9100HLNGTNE	Hillington East Rail Station	Hillington	-4.35501	55.85417	66	155	197
9100CBARPAR	Castle Bar Park Rail Station	West Ealing	-0.33155	51.52294	66	236	522
9100HADLYWD	Hadley Wood Rail Station	Hadley Wood	-0.17617	51.6685	66	291	606
9100GIDEAPK	Gidea Park Rail Station	Gidea Park	0.20598	51.58191	64	315	613
9100HGHMSPK	Highams Park Rail Station	Highams Park	-0.00021	51.60836	64	322	625
9100SHWLNDS	Shawlands Rail Station	Shawlands	-4.29234	55.8292	64	136	193
9100JAMESST	Liverpool James Street Rail Station	Liverpool	-2.99196	53.40477	64	104	136
9100KNLY	Kenley Rail Station	Kenley	-0.10092	51.32478	64	317	647
9400ZZLUNBP	Newbury Park Underground Station	Newbury Park	0.09001	51.57573	64	259	517
9400ZZLUBOS	Boston Manor Underground Station	Boston Manor	-0.32494	51.49564	64	232	537
9100MOTNGHM	Mottingham Rail Station	Mottingham	0.05006	51.44022	63	303	622
9100STRWBYH	Strawberry Hill Rail Station	Strawberry Hill	-0.33936	51.43897	63	277	614
9100REEDHMS	Reedham (Surrey) Rail Station	Purley	-0.12341	51.33112	63	316	647
9400ZZLUNHT	Northolt Underground Station	Northolt	-0.3687	51.54824	63	272	577
9100ELTHAM	Eltham Rail Station	Eltham	0.05248	51.45565	62	314	630
9100BNTFORD	Brentford Rail Station	Brentford	-0.30965	51.48755	62	302	645
9100GALTILL	Smethwick Galton Bridge Rail Station	Smethwick	-1.98051	52.50179	62	113	142
9400ZZLUDGY	Dagenham Heathway Underground Station	Dagenham	0.14754	51.54164	62	254	517
9400ZZLUBKH	Buckhurst Hill Underground Station	Buckhurst Hill	0.04677	51.62661	62	257	517
9100EPSM	Epsom Rail Station	Epsom	-0.26878	51.33439	62	237	553
9100SPRNGBN	Springburn Rail Station	Springburn	-4.23053	55.88192	62	143	199
9100ENFLDTN	Enfield Town Rail Station	Enfield Town	-0.07932	51.65203	62	265	558
9100UPMNSP6	Upminster Rail Station	Upminster	0.2509	51.55911	61	243	498
9100TEDNGTN	Teddington Rail Station	Teddington	-0.33271	51.42448	61	234	566
9100BELM	Belmont Rail Station	Belmont	-0.19885	51.34381	61	236	536
9100ESHER	Esher Rail Station	Esher	-0.35333	51.37989	61	343	698
9100EWELW	Ewell West Rail Station	Ewell	-0.25699	51.35005	60	250	586
9100SCTSTNH	Scotstounhill Rail Station	Scotstoun	-4.35288	55.88513	60	136	190
9100FIVEWYS	Five Ways Rail Station	Birmingham	-1.91295	52.4711	60	108	140
9400ZZLUKBY	Kingsbury Underground Station	Kingsbury	-0.27879	51.58485	60	286	604
9100WRUISLP	West Ruislip Rail Station	Ruislip	-0.43776	51.56976	60	250	524
9100EBSFDOM	Ebbsfleet International Rail Station	Ebbsfleet	0.32092	51.44297	60	385	687
9100FELTHAM	Feltham Rail Station	Feltham	-0.40983	51.4479	60	247	612
9100ADERLYP	Adderley Park Rail Station	Adderley Park	-1.85594	52.48309	60	106	139
9400ZZLUFYC	Finchley Central Underground Station	Finchley Central	-0.19252	51.60093	60	305	651
9400ZZLUPNR	Pinner Underground Station	Pinner	-0.38116	51.5929	60	211	458
9100DUDESTN	Duddeston Rail Station	Duddeston	-1.87139	52.48837	59	106	138
9100ALXPD	Alexandra Parade Rail Station	Dennistoun	-4.21064	55.86316	59	140	196
9100HTRWAPT	Heathrow Airport Terminals 1-3 Rail Station	Heathrow Airport Terminals 1-3	-0.45432	51.47141	59	240	531
9100UWRLNGH	Upper Warlingham Rail Station	Warlingham	-0.07795	51.30851	58	310	640
9100WDRYTON	West Drayton Rail Station	West Drayton	-0.47223	51.51006	58	228	510
9100MTFL	Mount Florida Rail Station	Mount Florida	-4.26112	55.82654	58	133	191
9100NWTL	Newton (S Lanarks) Rail Station	Newton	-4.13304	55.81877	58	129	187
9100HLNGTNW	Hillington West Rail Station	Hillington	-4.37158	55.85601	58	152	194
9100EWELLE	Ewell East Rail Station	Ewell	-0.24153	51.3453	58	217	515
9100WOKING	Woking Rail Station	Woking	-0.55695	51.31847	57	287	673
9100GFORD	Greenford Rail Station	Greenford	-0.34584	51.54234	57	257	563
9100BHAMSNH	Birmingham Snow Hill Rail Station	Birmingham	-1.89909	52.48336	57	104	132
9100SYONLA	Syon Lane Rail Station	Brentford End	-0.32484	51.48179	57	265	609
9100ASTON	Aston Rail Station	Aston	-1.87193	52.50424	57	98	131
9100HAMTSQ	Birkenhead Hamilton Square Rail Station	Birkenhead	-3.01369	53.39471	56	98	130
9100KGSTON	Kingston Rail Station	Kingston Upon Thames	-0.30117	51.41275	56	235	584
9100ASFIELD	Ashfield Rail Station	Parkhouse	-4.24921	55.88891	56	135	197
9100MERSTHM	Merstham Rail Station	Merstham	-0.15022	51.26415	56	271	630
9100BRKNHDC	Birkenhead Central Rail Station	Birkenhead	-3.02083	53.38833	56	96	126
9100SMTHKRS	Smethwick Rolfe Street Rail Station	Smethwick	-1.97064	52.49639	56	105	136
9100SLFDCT	Salford Crescent Rail Station	Salford Crescent Station	-2.27575	53.4866	55	116	194
9100UNVRSYB	University Rail Station	Birmingham University	-1.93668	52.45125	55	102	133
9100COLSTWN	Coulsdon Town (Smitham) Rail Station	Coulsdon	-0.13446	51.32204	55	280	609
9100CRHL	Crews Hill Rail Station	Crews Hill	-0.10688	51.68449	55	273	590
9100SHTLSTN	Shettleston Rail Station	Shettleston	-4.16003	55.85352	55	134	193
9400ZZLUUPM	Upminster Underground Station	Upminster	0.2509	51.55907	55	228	486
9100STKP	Stockport Rail Station	Stockport	-2.16301	53.40556	54	118	189
9100TURKYST	Turkey Street Rail Station	Enfield Wash	-0.04721	51.67264	54	268	541
9100LVRPLCH	Liverpool Central Rail Station	Liverpool	-2.97917	53.40461	54	99	132
9100STECHFD	Stechford Rail Station	Stechford	-1.81103	52.48483	54	101	132
9100MORFLDS	Moorfields Rail Station	Liverpool	-2.98919	53.40857	54	102	134
9100MNCRDGT	Deansgate Rail Station	Manchester City Centre	-2.25105	53.47419	54	127	204
9100CKHL	Corkerhill Rail Station	Mosspark	-4.33429	55.83749	54	136	193
9100WESTRTN	Westerton Rail Station	Westerton	-4.33487	55.90479	54	130	188
9100BRKNCPK	Conway Park Rail Station	Birkenhead	-3.02268	53.39338	54	97	128
9100BHAMJEW	Jewellery Quarter Rail Station	Jewellery Quarter	-1.91321	52.48944	54	97	129
9100HEDSTNL	Headstone Lane Rail Station	Hatch End	-0.35722	51.60265	54	305	581
9100MALDENM	Malden Manor Rail Station	Old Malden	-0.26127	51.38473	53	250	589
9100SANDH	Sandhills Rail Station	Liverpool	-2.9915	53.42995	53	97	131
9100PLKSHWE	Pollokshaws East Rail Station	Pollokshaws	-4.28688	55.82463	53	132	187
9100HANWELL	Hanwell Rail Station	Hanwell	-0.33859	51.51184	53	216	502
9100MORFNL	Moorfields Rail Station	Liverpool	-2.98918	53.40857	53	100	134
9100TYSL	Tyseley Rail Station	Tyseley	-1.83911	52.45412	53	98	129
9100FALCNWD	Falconwood Rail Station	Falconwood	0.07931	51.45916	53	279	589
9400ZZLUSRP	South Ruislip Underground Station	South Ruislip	-0.3989	51.55686	52	234	521
9100EDPK	Eden Park Rail Station	Eden Park	-0.02635	51.39009	52	250	546
9100LVRPLSH	Liverpool Lime Street Rail Station	Liverpool	-2.97773	53.40732	52	94	147
9100WHYTELF	Whyteleafe Rail Station	Whyteleafe	-0.08114	51.30996	52	258	591
9100EMRSPKH	Emerson Park Rail Station	Hornchurch	0.22013	51.56865	52	267	540
9400ZZLUBKE	Barkingside Underground Station	Barkingside	0.0886	51.58569	52	227	478
9100GSCD	Garscadden Rail Station	Garscadden	-4.365	55.88768	52	126	184
9100PETSWD	Petts Wood Rail Station	Petts Wood	0.07449	51.38862	52	287	626
9100STMRYC	St Mary Cray Rail Station	St Mary Cray	0.10639	51.39475	51	246	611
9100GNLN	Green Lane Rail Station	Tranmere	-3.01642	53.38327	51	94	126
9100ISLEWTH	Isleworth Rail Station	Isleworth	-0.33691	51.47477	51	220	573
9100SLOUGH	Slough Rail Station	Slough	-0.5915	51.51188	51	243	560
9100WHORNDN	West Horndon Rail Station	West Horndon	0.34065	51.56795	51	213	458
9100HAMWICK	Hampton Wick Rail Station	Hampton Wick	-0.31249	51.41453	51	208	550
9100THLB	Thornliebank Rail Station	Thornliebank	-4.3117	55.81109	51	131	187
9100HNCHLYW	Hinchley Wood Rail Station	Hinchley Wood	-0.34053	51.375	50	272	640
9100RNHAME	Rainham (London) Rail Station	Rainham	0.19065	51.51673	50	224	478
9400ZZLUEAE	Eastcote Underground Station	Eastcote	-0.39738	51.5765	50	192	393
9100GTWK	Gatwick Airport Rail Station	Gatwick Airport	-0.16104	51.15649	50	274	640
9100DENHAM	Denham Rail Station	Denham	-0.49743	51.57884	50	199	454
9400ZZCRGRA	Gravel Hill Tramlink Stop	Forestdale	-0.04314	51.35455	50	265	594
9100SNDWDUD	Sandwell & Dudley Rail Station	Oldbury	-2.0116	52.50867	50	100	136
9400ZZLUDGE	Dagenham East Underground Station	Dagenham East	0.16603	51.5441	49	229	483
9400ZZLUCWL	Chigwell Underground Station	Chigwell	0.07505	51.61792	49	226	478
9400ZZLURSG	Ruislip Gardens Underground Station	Ruislip Gardens	-0.4107	51.56074	49	214	493
9100CCRT	Cathcart Rail Station	Cathcart	-4.26053	55.81766	49	126	182
9100SMLHTH	Small Heath Rail Station	Small Heath	-1.85939	52.46377	49	97	132
9100GERRDSX	Gerrards Cross Rail Station	Gerrards Cross	-0.55527	51.58902	49	250	558
9400ZZLULGN	Loughton Underground Station	Loughton	0.05549	51.64145	49	226	478
9100CUFFLEY	Cuffley Rail Station	Cuffley	-0.10978	51.70872	49	262	569
9100LVRPLSL	Liverpool Lime Street Low Level Rail Station	Liverpool	-2.97775	53.40822	49	92	135
9100LNSD	Langside Rail Station	Langside	-4.27733	55.82113	48	123	181
9100HOUNSLW	Hounslow Rail Station	Hounslow	-0.36228	51.46195	48	172	514
9100RADLETT	Radlett Rail Station	Radlett	-0.31724	51.68519	48	271	606
9100ELMW	Elmstead Woods Rail Station	Elmstead	0.04428	51.41712	48	268	598
9100HERSHAM	Hersham Rail Station	Hersham	-0.38995	51.37681	48	280	648
9100HTCHEND	Hatch End Rail Station	Hatch End	-0.3686	51.60942	48	266	550
9100BNHL	Barnhill Rail Station	Petershill	-4.223	55.87748	48	129	188
9100THBLDSG	Theobalds Grove Rail Station	Theobalds Grove	-0.03482	51.69246	48	250	523
9100ROCKFRY	Rock Ferry Rail Station	Rock Ferry	-3.01083	53.37267	47	89	122
9400ZZLUNWH	Northwood Hills Underground Station	Northwood Hills	-0.40945	51.60057	47	164	402
9100OXTED	Oxted Rail Station	Oxted	-0.00483	51.25791	47	246	586
9100SPRD	Spring Road Rail Station	Hall Green	-1.83738	52.44342	47	96	126
9100UDNGSTN	Uddingston Rail Station	Uddingston	-4.08669	55.82352	47	127	186
9100POSILPK	Possilpark & Parkhouse Rail Station	Possil	-4.25851	55.89013	47	124	190
9100SNDP	Sundridge Park Rail Station	Plaistow	0.02145	51.41378	46	269	594
9100GIFNOCK	Giffnock Rail Station	Giffnock	-4.29301	55.80398	46	123	181
9400ZZLUQBY	Queensbury Underground Station	Queensbury	-0.28622	51.5942	46	255	553
9100GALTINT	Smethwick Galton Bridge High Level Rail Station	Smethwick	-1.9805	52.50179	46	99	133
9100BLANTYR	Blantyre Rail Station	Blantyre	-4.08696	55.79732	46	120	180
9100GRVSEND	Gravesend Rail Station	Gravesend	0.36665	51.44135	46	316	626
9100CLYGATE	Claygate Rail Station	Claygate	-0.34824	51.36121	46	228	600
9100CHSLHRS	Chislehurst Rail Station	Chislehurst	0.05743	51.40556	46	242	561
9100WELLING	Welling Rail Station	Welling	0.1017	51.4648	46	239	540
9100WITTON	Witton (West Midlands) Rail Station	Witton	-1.88443	52.51239	46	93	129
9100KENISHD	Kennishead Rail Station	Kennishead	-4.32524	55.81331	46	125	182
9100BNKHALL	Bank Hall Rail Station	Kirkdale	-2.98752	53.4375	45	87	123
9100WWICKHM	West Wickham Rail Station	West Wickham	-0.01443	51.3813	45	214	507
9400ZZLUOSY	Osterley Underground Station	Osterley	-0.35223	51.48128	45	197	460
9100SIDCUP	Sidcup Rail Station	Sidcup	0.1038	51.43387	45	208	513
9400ZZLUWRP	West Ruislip Underground Station	West Ruislip	-0.43788	51.56969	45	188	467
9400ZZLURSM	Ruislip Manor Underground Station	Ruislip Manor	-0.41296	51.5732	45	171	362
9100HNDSHWT	The Hawthorns Rail Station	West Bromwich	-1.96401	52.50538	45	99	131
9100WLDNGHM	Woldingham Rail Station	Woldingham	-0.05186	51.29016	45	244	583
9100HORLEY	Horley Rail Station	Horley	-0.16105	51.16877	45	225	599
9100BRHD	Barrhead Rail Station	Barrhead	-4.39728	55.80374	45	125	182
9100MRSTNGR	Marston Green Rail Station	Marston Green	-1.75561	52.4672	45	95	133
9100ASHBRYS	Ashburys Rail Station	Ashburys	-2.19444	53.47166	45	104	167
9100WBYFLET	West Byfleet Rail Station	West Byfleet	-0.50548	51.33923	44	230	593
9100KGPK	Kings Park Rail Station	King's Park	-4.24651	55.81954	44	120	177
9100BRKNHDP	Birkenhead Park Rail Station	Birkenhead Park	-3.03911	53.39742	44	91	124
9100BSHB	Bishopbriggs Rail Station	Bishopbriggs	-4.22491	55.90386	44	128	196
9100MOTHRWL	Motherwell Rail Station	Motherwell	-3.99431	55.79167	44	128	186
9100LEEDS	Leeds Rail Station	Leeds	-1.54802	53.79564	44	88	131
9100ACOCKSG	Acocks Green Rail Station	Acock's Green	-1.81898	52.44933	44	96	128
9100SELYOAK	Selly Oak Rail Station	Selly Oak	-1.93581	52.44199	44	91	130
9100KLGL	Kings Langley Rail Station	Kings Langley	-0.43841	51.70636	44	249	544
9100GARROWH	Garrowhill Rail Station	Garrowhill	-4.12945	55.85522	43	123	184
9100PRYBR	Perry Barr Rail Station	Perry Barr	-1.90196	52.5165	43	88	125
9100WONT	Walton-on-Thames Rail Station	Walton-on-Thames	-0.41463	51.37293	43	243	611
9100MSSPARK	Mosspark Rail Station	Mosspark	-4.34829	55.84081	43	131	187
9100STALBCY	St Albans Rail Station	St Albans	-0.32754	51.75048	43	303	649
9400ZZLUSGT	Southgate Underground Station	Southgate	-0.12781	51.63232	43	243	554
9100KRKDALE	Kirkdale Rail Station	Kirkdale	-2.98112	53.44091	43	87	131
9400ZZLUHWE	Hounslow East Underground Station	Hounslow East	-0.35648	51.47322	43	178	422
9400ZZLURSP	Ruislip Underground Station	Ruislip	-0.42189	51.57135	43	161	350
9100LEAHALL	Lea Hall Rail Station	Lea Hall	-1.78602	52.48065	43	90	130
9100SGFORD	South Greenford Rail Station	Greenford	-0.33671	51.53376	42	195	470
9400ZZLUNOW	Northwood Underground Station	Northwood	-0.42382	51.61105	42	140	359
9100TDITTON	Thames Ditton Rail Station	Thames Ditton	-0.33915	51.3891	42	241	612
9100HATFILD	Hatfield (Herts) Rail Station	Hatfield	-0.21559	51.76388	42	260	562
9100PSLYSTJ	Paisley St James Rail Station	Paisley	-4.44244	55.8521	42	135	185
9100EDGH	Edge Hill Rail Station	Edge Hill	-2.94649	53.40263	42	82	140
9100ASFDMSX	Ashford (Surrey) Rail Station	Ashford	-0.46806	51.43651	42	159	503
9100LVHM	Levenshulme Rail Station	Levenshulme	-2.19267	53.44418	42	109	175
9100DENHMGC	Denham Golf Club Rail Station	Higher Denham	-0.51778	51.5806	42	188	443
9100LAMBH	Gilshochill Rail Station	Gilshochill	-4.28268	55.89732	41	117	184
9400ZZLUUPB	Upminster Bridge Underground Station	Upminster Bridge	0.23582	51.55857	41	183	430
9100CRPNDPK	Carpenders Park Rail Station	Carpenders Park	-0.38594	51.62835	41	214	493
9100STEVNGE	Stevenage Rail Station	Stevenage	-0.20711	51.90169	41	228	522
9100BSDN	Bearsden Rail Station	Bearsden	-4.33201	55.91712	41	116	177
9100BLSHL	Bellshill Rail Station	Bellshill	-4.02449	55.81706	41	119	182
9100ASHD	Ashtead Rail Station	Ashtead	-0.30757	51.31787	41	161	444
9100MNCRVIC	Manchester Victoria Rail Station	Manchester City Centre	-2.2426	53.48748	41	106	179
9100BNWK	Brunswick Rail Station	Dingle	-2.97608	53.38326	41	86	126
9400ZZLUCND	Colindale Underground Station	Colindale	-0.24992	51.59543	41	257	604
9100ALBNYPK	Albany Park Rail Station	Sidcup	0.12575	51.43545	41	175	473
9100BROMLYN	Bromley North Rail Station	Bromley	0.017	51.40833	41	242	559
9400ZZCRADV	Addington Village Tramlink Stop	Addington	-0.03269	51.35624	41	216	557
9100CFFT	Croftfoot Rail Station	Croftfoot	-4.22832	55.81825	40	111	171
9100CHLSFLD	Chelsfield Rail Station	Chelsfield	0.10908	51.35626	40	307	666
9400ZZLUCPK	Canons Park Underground Station	Canons Park	-0.29469	51.6077	40	226	507
9100SLFDORD	Salford Central Rail Station	Salford Central Station	-2.25484	53.48309	40	104	176
9100DRMCHPL	Drumchapel Rail Station	Drumchapel	-4.36287	55.9048	40	111	175
9100BELVEDR	Belvedere Rail Station	Belvedere	0.1523	51.49212	40	184	479
9100GRAVLYH	Gravelly Hill Rail Station	Gravelly Hill	-1.85259	52.51501	40	86	122
9100LETHRHD	Leatherhead Rail Station	Leatherhead	-0.33322	51.29882	40	142	390
9100BOOTLOR	Bootle Oriel Road Rail Station	Bootle	-2.99574	53.44663	40	84	121
9100WDMNSTR	Woodmansterne Rail Station	Coulsdon	-0.15426	51.31902	40	202	550
9100ESHS	Easterhouse Rail Station	Easterhouse	-4.10716	55.85974	40	116	180
9100WHYTLFS	Whyteleafe South Rail Station	Whyteleafe	-0.07691	51.30339	40	206	551
9100WATFJDC	Watford Junction Rail Station	Watford	-0.39652	51.66353	39	245	537
9100BANSTED	Banstead Rail Station	Banstead	-0.21316	51.32935	39	177	475
9100STAINES	Staines Rail Station	Staines	-0.50316	51.43246	39	147	497
9100DARTFD	Dartford Rail Station	Dartford	0.21926	51.44737	39	159	472
9100YOKER	Yoker Rail Station	Whitecrook	-4.38628	55.89257	39	113	175
9100SUMRSTN	Summerston Rail Station	Summerston	-4.29153	55.89882	39	108	177
9100MUIREND	Muirend Rail Station	Muirend	-4.27439	55.80945	39	113	173
9100BHAMINT	Birmingham International Rail Station	National Exhibition Centre	-1.72586	52.45081	39	89	132
9100MRYHILL	Maryhill Rail Station	Maryhill	-4.30074	55.89762	39	106	174
9100GORTON	Gorton Rail Station	Gorton	-2.16621	53.46909	39	94	157
9400ZZLUHWC	Hounslow Central Underground Station	Hounslow Central	-0.36658	51.4713	39	160	406
9100CRDFCEN	Cardiff Central Rail Station	Cardiff	-3.17931	51.47603	39	66	101
9400ZZLUICK	Ickenham Underground Station	Ickenham	-0.44199	51.56199	39	146	334
9100JOHNSTN	Johnstone Rail Station	Johnstone	-4.50362	55.83469	39	142	187
9100IVER	Iver Rail Station	Iver	-0.50672	51.50851	39	188	452
9100PRST	Preston Rail Station	Preston	-2.70812	53.75687	39	93	163
9100BOURNVL	Bournville Rail Station	Bournville	-1.92642	52.42697	39	85	126
9400ZZLUEPK	Elm Park Underground Station	Elm Park	0.19865	51.54978	38	187	431
9100WTRORTN	Water Orton Rail Station	Water Orton	-1.7431	52.51859	38	90	129
9100HAMSTED	Hamstead (Birmingham) Rail Station	Hamstead	-1.92898	52.53108	38	85	121
9100CLYBANK	Clydebank Rail Station	Clydebank	-4.40441	55.90068	38	105	168
9400ZZLUFLP	Fairlop Underground Station	Fulwell Cross	0.09101	51.59562	38	195	435
9100DUDLPT	Dudley Port Rail Station	Dudley Port	-2.04948	52.52466	38	93	133
9100THBDGS	Three Bridges Rail Station	Three Bridges	-0.16118	51.11692	38	184	549
9100HRSTGRN	Hurst Green Rail Station	Hurst Green	0.00395	51.24443	38	194	549
9100GUILDFD	Guildford Rail Station	Guildford	-0.58042	51.23697	38	125	493
9100RDNGSTN	Reading Rail Station	Reading	-0.97185	51.45878	38	112	369
9100BXLYHTH	Bexleyheath Rail Station	Bexleyheath	0.13375	51.4635	38	178	477
9100BLAIRHL	Blairhill Rail Station	Blairhill	-4.04328	55.86644	38	110	185
9100LAINDON	Laindon Rail Station	Laindon	0.42429	51.56753	37	168	402
9100WVRTTEC	Wavertree Technology Park Rail Station	Wavertree Nook	-2.92291	53.4052	37	80	144
9100BUSHYDC	Bushey Rail Station	Bushey	-0.38532	51.64575	37	213	503
9400ZZLUGGH	Grange Hill Underground Station	Grange Hill	0.09208	51.61338	37	193	435
9100BEXLEY	Bexley Rail Station	Bexley	0.14791	51.44022	37	161	440
9100BOOTLNS	Bootle New Strand Rail Station	Bootle	-2.99475	53.4534	37	84	118
9100ERITH	Erith Rail Station	Erith	0.17507	51.48167	37	157	446
9100WIGANNW	Wigan North Western Rail Station	Wigan	-2.63327	53.54368	37	95	186
9100LANGLEY	Langley (Berks) Rail Station	Langley	-0.54175	51.50807	37	181	443
9100DALMUIR	Dalmuir Rail Station	Dalmuir	-4.42668	55.91192	37	106	171
9100DAWSHLM	Kelvindale Rail Station	Kelvindale	-4.30957	55.89354	37	112	178
9400ZZLUMHL	Mill Hill East Underground Station	Mill Hill East	-0.20998	51.60824	37	241	578
9100TOLWTH	Tolworth Rail Station	Tolworth	-0.27946	51.37686	36	203	532
9100WALTONM	Walton (Merseyside) Rail Station	Walton	-2.96575	53.45623	36	83	124
9100BROXBRN	Broxbourne Rail Station	Broxbourne	-0.01108	51.74691	36	208	469
9100HLFT	Hillfoot Rail Station	Hillfoot	-4.32027	55.92008	36	109	173
9100STMCHLS	St Michaels Rail Station	St Michaels	-2.9528	53.37562	36	79	126
9100SLADEGN	Slade Green Rail Station	Slade Green	0.1905	51.46779	36	143	419
9100DRUMRY	Drumry Rail Station	Drumry	-4.38547	55.90458	36	103	168
9100SINGER	Singer Rail Station	Clydebank	-4.40548	55.90766	36	97	160
9100ARDWICK	Ardwick Rail Station	Ardwick	-2.21432	53.47157	36	96	161
9100LGRN	Langley Green Rail Station	Langley Green	-2.00496	52.49388	36	87	126
9100SWLY	Swanley Rail Station	Swanley	0.16924	51.39339	36	200	556
9100RCKMNSW	Rickmansworth Rail Station	Rickmansworth	-0.47327	51.64025	36	146	398
9100WLWYNGC	Welwyn Garden City Rail Station	Welwyn Garden City	-0.20407	51.80105	36	245	541
9100HLGN	Hall Green Rail Station	Hall Green	-1.84565	52.43692	36	91	123
9100KRKH	Kirkhill Rail Station	Cambuslang	-4.1671	55.81391	36	94	155
9100FULWELL	Fulwell Rail Station	Fulwell	-0.34947	51.43394	35	153	449
9100OLTON	Olton Rail Station	Olton	-1.80432	52.43852	35	89	126
9100HRLWTWN	Harlow Town Rail Station	Harlow	0.09514	51.78107	35	206	497
9100BRKNHDN	Birkenhead North Rail Station	Birkenhead	-3.05754	53.40445	35	84	121
9100BRSDE	Burnside (Strathclyde) Rail Station	Burnside	-4.20238	55.81692	35	100	162
9100ALERTN	Liverpool South Parkway Rail Station	Allerton	-2.88913	53.35776	35	81	160
9100GIDB	Guide Bridge Rail Station	Guide Bridge	-2.11371	53.47465	35	87	150
9100BDSTON	Bidston Rail Station	Bidston	-3.07857	53.40915	35	81	117
9100OCKENDN	Ockendon Rail Station	South Ockendon	0.29047	51.522	35	161	397
9100WATFDN	Watford North Rail Station	North Watford	-0.38993	51.6757	35	204	500
9100SOLIHUL	Solihull Rail Station	Solihull	-1.7884	52.41441	35	92	125
9100FRFD	Fairfield Rail Station	Fairfield	-2.14577	53.47131	34	87	149
9400ZZLUHGD	Hillingdon Underground Station	North Hillingdon	-0.44982	51.55371	34	130	298
9100OXSHOTT	Oxshott Rail Station	Oxshott	-0.36241	51.3364	34	170	540
9100HTCP	Heaton Chapel Rail Station	Heaton Chapel	-2.17904	53.42558	34	103	168
9100HCRT	Hampton Court Rail Station	East Molesey	-0.34275	51.40256	34	198	571
9400ZZLUHWT	Hounslow West Underground Station	Hounslow West	-0.38653	51.47347	34	143	365
9100CHINGFD	Chingford Rail Station	Chingford	0.00991	51.63309	34	249	539
9400ZZLUHCH	Hornchurch Underground Station	Hornchurch	0.21913	51.5541	34	163	402
9100KLPTRCK	Kilpatrick Rail Station	Old Kilpatrick	-4.45339	55.92469	34	89	154
9100MDNHEAD	Maidenhead Rail Station	Maidenhead	-0.72266	51.51867	34	184	495
9400ZZLUMPK	Moor Park Underground Station	Moor Park	-0.43244	51.62984	34	110	317
9100STCR	Stone Crossing Rail Station	Stone	0.26379	51.45133	34	132	465
9100PHLD	Priesthill & Darnley Rail Station	Darnley	-4.34289	55.81216	34	118	177
9100BEBNGTN	Bebington Rail Station	Bebington	-3.00364	53.35767	34	86	122
9100ERDNGTN	Erdington Rail Station	Erdington	-1.8395	52.52829	34	80	121
9100HEMLHMP	Hemel Hempstead Rail Station	Hemel Hempstead	-0.49076	51.74234	33	187	481
9100GNHT	Greenhithe for Bluewater Rail Station	Greenhithe	0.28031	51.45037	33	147	482
9100BRNHRST	Barnehurst Rail Station	Barnehurst	0.15966	51.46496	33	166	449
9100WEYBDGE	Weybridge Rail Station	Weybridge	-0.45772	51.36177	33	179	535
9400ZZCRFLD	Fieldway Tramlink Stop	Forestdale	-0.02453	51.35132	33	175	516
9100SVNOAKS	Sevenoaks Rail Station	Sevenoaks	0.18168	51.27686	33	187	550
9100HAMLTNW	Hamilton West Rail Station	Hamilton	-4.0548	55.77885	33	112	169
9100ROWLEYR	Rowley Regis Rail Station	Rowley Regis	-2.03088	52.47733	33	84	125
9100CRFD	Crayford Rail Station	Crayford	0.17895	51.44828	33	136	415
9100SFRTHAL	Seaforth & Litherland Rail Station	Seaforth	-3.00563	53.46628	33	74	116
9100CARDFQS	Cardiff Queen Street Rail Station	Cardiff	-3.1702	51.48196	33	55	83
9100BAYFORD	Bayford Rail Station	Bayford	-0.0956	51.75772	33	194	485
9100CARMYLE	Carmyle Rail Station	Carmyle	-4.15817	55.83433	33	121	181
9400ZZLUOAK	Oakwood Underground Station	Oakwood	-0.13216	51.64773	33	214	504
9100ORELPKH	Orrell Park Rail Station	Orrell Park	-2.96332	53.46191	33	73	120
9100CLRKSTN	Clarkston Rail Station	Clarkston	-4.27564	55.78934	32	107	170
9100BOLTON	Bolton Rail Station	Bolton	-2.42583	53.57416	32	103	187
9100WMWD	Williamwood Rail Station	Williamwood	-4.29033	55.79368	32	95	161
9100HAYMRKT	Haymarket Rail Station	Edinburgh	-3.21844	55.9458	32	62	123
9100APSLEY	Apsley Rail Station	Apsley	-0.46292	51.73252	32	186	481
9100BYFLANH	Byfleet & New Haw Rail Station	Byfleet	-0.48138	51.3498	32	167	514
9100BISHPTN	Bishopton Rail Station	Bishopton	-4.50157	55.90215	32	118	177
9100COATBDC	Coatbridge Central Rail Station	Coatbridge	-4.03188	55.8625	32	87	151
9100KNORTON	Kings Norton Rail Station	Cotteridge	-1.93232	52.4143	32	80	121
9100MSLH	Mossley Hill Rail Station	Mossley Hill	-2.91545	53.37906	32	72	129
9400ZZLUBTK	Burnt Oak Underground Station	Burnt Oak	-0.26405	51.60278	32	218	557
9100EGHAM	Egham Rail Station	Egham	-0.54651	51.42965	32	98	350
9100ANGELRD	Angel Road Rail Station	Upper Edmonton	-0.04878	51.61241	32	199	477
9100CHDH	Cheadle Hulme Rail Station	Cheadle Hulme	-2.1883	53.37595	32	94	158
9400ZZLUSTM	Stanmore Underground Station	Stanmore	-0.30327	51.61984	32	190	468
9100CHSRD	Chester Road Rail Station	Yenton	-1.83247	52.53566	31	77	116
9400ZZLUWFN	West Finchley Underground Station	West Finchley	-0.18836	51.60943	31	226	555
9100MLDTHRD	Mauldeth Road Rail Station	Burnage	-2.20925	53.43308	31	93	157
9100HYWRDSH	Haywards Heath Rail Station	Haywards Heath	-0.10508	51.00567	31	101	370
9100AIGBURT	Aigburth Rail Station	Aigburth	-2.92716	53.36458	31	76	126
9100COSELEY	Coseley Rail Station	Coseley	-2.08578	52.54509	31	91	137
9100WATFDHS	Watford High Street Rail Station	Watford	-0.39171	51.65266	31	173	472
9100COLESHL	Coleshill Parkway Rail Station	Coleshill	-1.70818	52.51654	31	87	126
9100GRSTH	Garston (Herts) Rail Station	Garston	-0.38174	51.68662	31	160	472
9100REDISHN	Reddish North Rail Station	North Reddish	-2.15625	53.44943	31	84	144
9100VRGNWTR	Virginia Water Rail Station	Virginia Water	-0.56217	51.4018	31	98	311
9100COATBDS	Coatbridge Sunnyside Rail Station	Coatbridge	-4.02827	55.86682	31	101	174
9100DEPDENE	Dorking Deepdene Rail Station	Dorking	-0.32463	51.2388	31	133	390
9100WVRMPTN	Wolverhampton Rail Station	Wolverhampton	-2.11952	52.58786	31	88	148
9100WIGANWL	Wigan Wallgate Rail Station	Wigan	-2.63318	53.54484	31	71	163
9100CATHAYS	Cathays Rail Station	Cathays	-3.17869	51.4889	31	54	83
9100REDGWST	Reading West Rail Station	Reading	-0.99014	51.4555	31	85	277
9100BCNSFLD	Beaconsfield Rail Station	Beaconsfield	-0.64382	51.61129	30	169	447
9100NRTHFLT	Northfleet Rail Station	Northfleet	0.32434	51.44585	30	221	545
9100CHSSN	Chessington North Rail Station	Chessington	-0.3007	51.36404	30	164	486
9100WSTHOTN	Westhoughton Rail Station	Westhoughton	-2.52373	53.55568	30	69	159
9100SWNSCMB	Swanscombe Rail Station	Swanscombe	0.30955	51.44907	30	184	514
9100HAMLTNC	Hamilton Central Rail Station	Hamilton	-4.03887	55.77318	30	106	163
9100CHSD	Chipstead Rail Station	Chipstead	-0.1695	51.30928	30	143	480
9100PSLT	Port Sunlight Rail Station	Port Sunlight	-2.99804	53.34927	30	78	121
9100HAYS	Hayes (Kent) Rail Station	Hayes	0.01056	51.37633	30	168	451
9100REIGATE	Reigate Rail Station	Reigate	-0.20382	51.24196	30	155	506
9100RICELA	Rice Lane Rail Station	Orrell Park	-2.96232	53.45778	30	72	125
9100BOWLING	Bowling Rail Station	Bowling	-4.49382	55.93107	30	78	149
9100CHST	Chester Rail Station	Chester	-2.8796	53.19671	30	70	146
9100EDINBUR	Edinburgh Rail Station	Edinburgh	-3.18822	55.95239	30	55	94
9100TIPTON	Tipton Rail Station	Tipton	-2.0657	52.53045	30	88	133
9100COATDYK	Coatdyke Rail Station	Coatdyke	-4.00497	55.86433	29	101	176
9100HINDLEY	Hindley Rail Station	Hindley	-2.5755	53.54225	29	63	152
9100TWYFORD	Twyford Rail Station	Twyford	-0.86329	51.47553	29	84	277
9100WLOO	Waterloo (Merseyside) Rail Station	Waterloo	-3.02554	53.47497	29	69	113
9100WHIFLET	Whifflet Rail Station	Coatbridge	-4.01864	55.85369	29	86	157
9100WALERTN	West Allerton Rail Station	Allerton	-2.90697	53.36914	29	67	126
9100BROADGR	Broad Green Rail Station	Broadgreen	-2.89349	53.40651	29	70	133
9100BRGHTN	Brighton Rail Station	Brighton	-0.14128	50.829	29	68	212
9100LENZIE	Lenzie Rail Station	Lenzie	-4.15388	55.92131	29	120	198
9100YRDLYWD	Yardley Wood Rail Station	Yardley Wood	-1.85438	52.42151	29	79	117
9100BURGESH	Burgess Hill Rail Station	Burgess Hill	-0.12741	50.95365	29	82	318
9100CRSNGTN	Cressington Rail Station	Cressington	-2.91201	53.35877	29	73	124
9100BERKHMD	Berkhamsted Rail Station	Berkhamsted	-0.56201	51.76314	29	118	408
9100STEPPS	Stepps Rail Station	Stepps	-4.1408	55.89012	29	115	178
9100MLGV	Milngavie Rail Station	Milngavie	-4.31457	55.94135	29	94	160
9100HRLDWOD	Harold Wood Rail Station	Harold Wood	0.23314	51.59277	29	226	490
9100WALASYV	Wallasey Village Rail Station	Wallasey	-3.06914	53.4229	29	70	111
9100CATERHM	Caterham Rail Station	Caterham	-0.0783	51.28214	28	146	481
9100NTHCAMP	North Camp Rail Station	Ash Vale	-0.7312	51.27579	28	69	167
9100CROKSTN	Crookston Rail Station	Crookston	-4.36467	55.8423	28	121	182
9100WRGTNBQ	Warrington Bank Quay Rail Station	Warrington	-2.60236	53.38603	28	100	197
9100EDINPRK	Edinburgh Park Rail Station	Edinburgh Park	-3.30766	55.92754	28	57	101
9100BRKMNPK	Brookmans Park Rail Station	Brookmans Park	-0.20455	51.72106	28	191	479
9400ZZLUCKS	Cockfosters Underground Station	Cockfosters	-0.14917	51.65152	28	179	468
9100BTCHWTH	Betchworth Rail Station	Betchworth	-0.26697	51.24819	28	127	430
9100TAMEBDG	Tame Bridge Parkway Rail Station	Tame Bridge	-1.97621	52.55294	28	74	114
9100HOLYTWN	Holytown Rail Station	Holytown	-3.97391	55.81289	28	99	171
9100EDIDBRY	East Didsbury Rail Station	East Didsbury	-2.222	53.40933	28	88	154
9100BRKWOOD	Brookwood Rail Station	Brookwood	-0.63574	51.30376	28	129	503
9400ZZLUHRC	Heathrow Airport Term 1-3 Underground Station	Heathrow Airport Terminals 1-3	-0.45226	51.47124	28	143	387
9100SHALFD	Shalford (Surrey) Rail Station	Shalford	-0.5668	51.21432	28	73	291
9400ZZLUDBN	Debden Underground Station	Debden	0.08379	51.64539	28	178	422
9100CHADHDD	Chafford Hundred Rail Station	Chafford Hundred	0.28746	51.48556	28	127	352
9100DMBRTNE	Dumbarton East Rail Station	Dumbarton	-4.55412	55.94224	28	73	140
9100AIRBLES	Airbles Rail Station	Motherwell	-3.99418	55.78282	28	106	162
9100HYDEN	Hyde North Rail Station	Hyde	-2.08545	53.46482	28	65	132
9100WLMSL	Wilmslow Rail Station	Wilmslow	-2.22633	53.32686	27	78	147
9100ROMILEY	Romiley Rail Station	Romiley	-2.08932	53.41403	27	69	121
9100SEERGRN	Seer Green Rail Station	Seer Green	-0.60781	51.60984	27	143	393
9100ASHH	Ash Rail Station	Ash	-0.7128	51.2496	27	72	178
9100LVRPSPY	Liverpool South Parkway Rail Station	Garston	-2.88915	53.35776	27	69	130
9100DRKGW	Dorking West Rail Station	Dorking	-0.33997	51.23622	27	120	364
9100NITSH	Nitshill Rail Station	Nitshill	-4.35995	55.81192	27	108	170
9100RADYR	Radyr Rail Station	Radyr	-3.24836	51.51633	27	52	77
9100BASILDN	Basildon Rail Station	Basildon Town Centre	0.4568	51.56811	27	121	333
9400ZZLUHNX	Hatton Cross Underground Station	Hatton Cross	-0.42318	51.46675	27	130	344
9100FRBRNTH	Farnborough North Rail Station	Farnborough	-0.74303	51.30204	27	65	139
9100EARLSWD	Earlswood (Surrey) Rail Station	Earlswood	-0.17082	51.22733	27	143	506
9100HUNTSX	Hunts Cross Rail Station	Hunts Cross	-2.85586	53.36073	27	67	137
9100WTCR	Whitecraigs Rail Station	Whitecraigs	-4.31015	55.79031	27	86	154
9100WOKNGHM	Wokingham Rail Station	Wokingham	-0.84255	51.41122	27	70	200
9100RYEHOUS	Rye House Rail Station	Rye Park	0.00564	51.76942	27	131	393
9100LEASOWE	Leasowe Rail Station	Leasowe	-3.0996	53.40806	27	66	110
9100RDNG4AB	Reading Rail Station	Reading	-0.97187	51.45878	27	92	322
9100SHILDMR	Shieldmuir Rail Station	Wishaw	-3.95699	55.77748	27	100	157
9100PURFLET	Purfleet Rail Station	Purfleet	0.23678	51.48102	27	154	391
9100CBHMSDA	Cobham & Stoke d'Abernon Rail Station	Cobham	-0.38934	51.3181	27	130	466
9100HUYTON	Huyton Rail Station	Huyton	-2.84299	53.40969	27	72	137
9100PITSEA	Pitsea Rail Station	Pitsea	0.5063	51.56036	27	93	273
9100AINTREE	Aintree Rail Station	Aintree	-2.95629	53.47392	27	69	112
9100SPITAL	Spital Rail Station	Spital	-2.99391	53.33995	27	80	118
9100BLLVUE	Belle Vue Rail Station	Belle Vue	-2.18051	53.46239	27	79	140
9100OLHL	Old Hill Rail Station	Old Hill	-2.05619	52.47094	27	73	119
9100CHRW	Chorleywood Rail Station	Chorleywood	-0.51831	51.65425	27	105	319
9100EXETRSD	Exeter St Davids Rail Station	Exeter City Centre	-3.54331	50.72926	27	35	48
9100BCWD	Bricket Wood Rail Station	Bricket Wood	-0.35912	51.70543	27	112	411
9100WRPLSDN	Worplesdon Rail Station	Worplesdon	-0.58257	51.28902	26	154	564
9100BLNDLAC	Blundellsands & Crosby Rail Station	Blundellsands	-3.03987	53.4877	26	60	108
9100WLWYNN	Welwyn North Rail Station	Welwyn	-0.19209	51.8235	26	195	486
9100OTFORD	Otford Rail Station	Otford	0.19679	51.31316	26	88	379
9100WYGN	Wylde Green Rail Station	Wylde Green	-1.8314	52.54572	26	72	113
9100FAZKRLY	Fazakerley Rail Station	Fazakerley	-2.93673	53.4691	26	62	123
9100ROYDON	Roydon Rail Station	Roydon	0.03626	51.77549	26	87	347
9100TONBDG	Tonbridge Rail Station	Tonbridge	0.27099	51.19141	26	86	391
9100MSGT	Moses Gate Rail Station	Moses Gate	-2.40119	53.556	26	78	158
9100WVLSFLD	Wivelsfield Rail Station	Burgess Hill	-0.12079	50.96429	26	71	252
9100FLWRYFD	Flowery Field Rail Station	Flowery Field	-2.08105	53.46187	26	74	136
9100DMBRTNC	Dumbarton Central Rail Station	Dumbarton	-4.56691	55.94664	26	55	126
9100WALAGRD	Wallasey Grove Road Rail Station	Wallasey	-3.06972	53.42801	26	65	107
9100CROY	Croy Rail Station	Croy	-4.03596	55.95567	26	117	200
9100ASHFKY	Ashford International Rail Station	Ashford	0.87621	51.14371	26	69	323
9100NINIANP	Ninian Park Rail Station	Canton	-3.2017	51.47662	26	51	82
9400ZZLUHLT	Hainault Underground Station	Hainault	0.09349	51.60367	26	165	400
9100HFDN	Hertford North Rail Station	Hertford	-0.09178	51.79886	26	149	424
9100SMARGRT	St Margarets (Herts) Rail Station	St Margarets	0.00128	51.78784	25	110	375
9400ZZLUCXY	Croxley Underground Station	Croxley Green	-0.44171	51.64704	25	96	269
9100LEWES	Lewes Rail Station	Lewes	0.01134	50.87063	25	50	100
9100SOTON	Southampton Central Rail Station	Southampton	-1.4136	50.90744	25	43	70
9100DORKING	Dorking Rail Station	Dorking	-0.32424	51.24093	25	102	294
9100EFNGHMJ	Effingham Junction Rail Station	Effingham Junction	-0.41996	51.29149	25	113	395
9100CRADLYH	Cradley Heath Rail Station	Cradley Heath	-2.09049	52.46966	25	68	116
9100OLDROAN	Old Roan Rail Station	Old Roan	-2.95108	53.48691	25	60	107
9100MOTO	Moreton (Merseyside) Rail Station	Moreton	-3.11351	53.40722	25	64	108
9100SUNNGDL	Sunningdale Rail Station	Sunningdale	-0.63304	51.39194	25	68	201
9100EPSDNS	Epsom Downs Rail Station	Epsom	-0.23895	51.32369	25	147	422
9100WELHAMG	Welham Green Rail Station	Welham Green	-0.21069	51.73635	25	186	465
9100ROBY	Roby Rail Station	Roby	-2.85594	53.41005	25	68	132
9100FAMR	Falmer Rail Station	Falmer	-0.08738	50.86212	25	43	94
9100BREDBRY	Bredbury Rail Station	Bredbury	-2.11049	53.42317	25	70	134
9100GRNFLDS	Greenfaulds Rail Station	Greenfaulds	-3.99308	55.93522	25	86	153
9100LLANDAF	Llandaf Rail Station	Llandaff	-3.22862	51.50844	25	53	78
9100RYDRBRW	Ryder Brow Rail Station	Ryder Brow	-2.17309	53.4566	25	75	138
9100HASOCKS	Hassocks Rail Station	Hassocks	-0.14595	50.92461	25	58	168
9100PRSP	Preston Park Rail Station	Brighton	-0.15517	50.84594	25	49	120
9100TILHRST	Tilehurst Rail Station	Tilehurst	-1.02982	51.47151	25	78	276
9100BUSBY	Busby Rail Station	Busby	-4.26219	55.78033	25	95	161
9100TAPLOW	Taplow Rail Station	Taplow	-0.68137	51.52356	25	122	346
9100FRNW	Farnworth Rail Station	Farnworth	-2.38785	53.55002	25	80	157
9100PATERTN	Patterton Rail Station	Newton Mearns	-4.33529	55.7906	25	79	146
9100HLDG	Heald Green Rail Station	Heald Green	-2.23667	53.36943	25	83	147
9400ZZLURKW	Rickmansworth Underground Station	Rickmansworth	-0.47369	51.64021	25	96	289
9100HEATHHL	Heath High Level Rail Station	Heath	-3.18155	51.51643	25	51	75
9100GRAYS	Grays Rail Station	Grays	0.32183	51.47625	25	120	328
9100KKBY	Kirkby Rail Station	Kirkby	-2.90283	53.4862	25	65	124
9100TRFDPK	Trafford Park Rail Station	Trafford Park	-2.31063	53.45484	25	87	162
9100BRMBRK	Bromborough Rake Rail Station	Bromborough	-2.98948	53.32992	25	71	116
9100WRGT	Warrington Central Rail Station	Warrington	-2.59316	53.39183	25	80	183
9100CHTSEY	Chertsey Rail Station	Chertsey	-0.50931	51.38707	25	102	342
9400ZZLUEGW	Edgware Underground Station	Edgware	-0.27493	51.61365	25	187	513
9100BENFLET	Benfleet Rail Station	South Benfleet	0.56172	51.54395	24	78	249
9100ADLESTN	Addlestone Rail Station	Addlestone	-0.48445	51.37305	24	119	416
9100HEATHLL	Heath Low Level Rail Station	Heath	-3.18198	51.51566	24	48	74
9100BOXHAWH	Box Hill & Westhumble Rail Station	Box Hill	-0.32848	51.25401	24	110	305
9100ERLSTWN	Earlestown Rail Station	Earlestown	-2.63766	53.45115	24	70	192
9100DAVNPRT	Davenport Rail Station	Davenport	-2.15296	53.39092	24	93	156
9100BAGE	Burnage Rail Station	Burnage	-2.21568	53.42119	24	85	149
9100GATHRST	Gathurst Rail Station	Gathurst	-2.69439	53.55942	24	56	127
9100PSLDAWH	Portslade Rail Station	Portslade	-0.20532	50.83568	24	45	93
9100AIRDRIE	Airdrie Rail Station	Airdrie	-3.9829	55.86397	24	87	171
9100HALLRD	Hall Road Rail Station	Crosby	-3.04964	53.4975	24	54	102
9100LNGCROS	Longcross Rail Station	Longcross	-0.59457	51.38517	24	68	199
9100NWTH	Newton for Hyde Rail Station	Hyde	-2.06714	53.4564	24	64	129
9100CHLFNAL	Chalfont and Latimer Rail Station	Little Chalfont	-0.56052	51.66811	24	76	278
9100HNDFRTH	Handforth Rail Station	Handforth	-2.21363	53.34651	24	79	140
9100CHTLRT	Chatelherault Rail Station	Allanton	-4.00466	55.76521	24	85	150
9100HOVE	Hove Rail Station	Hove	-0.17069	50.83521	24	51	121
9100CRWTHRN	Crowthorne Rail Station	Crowthorne	-0.81927	51.36673	24	57	148
9100SOTPKWY	Southampton Airport Parkway Rail Station	North Stoneham	-1.3631	50.95081	24	41	71
9100CARDFBR	Cardiff Bay Rail Station	Cardiff Bay	-3.16643	51.46711	24	46	75
9100LGBK	Langbank Rail Station	Langbank	-4.58526	55.92451	24	88	164
9100BNHAM	Burnham (Berks) Rail Station	Burnham	-0.64637	51.5235	24	152	406
9100CHSSS	Chessington South Rail Station	Chessington	-0.30816	51.35655	24	133	447
9100HTRWTM5	Heathrow Airport Terminal 5 Rail Station	Heathrow Airport Terminal 5	-0.49058	51.47006	24	153	441
9100SWNT	Swinton (Manchester) Rail Station	Swinton	-2.33746	53.51484	24	89	159
9100TREFRST	Trefforest Rail Station	Treforest	-3.32513	51.59146	24	45	63
9100COSHAM	Cosham Rail Station	Cosham	-1.06733	50.84191	24	42	71
9100LGFD	Longfield Rail Station	Longfield	0.30038	51.39616	24	107	420
9100FAREHAM	Fareham Rail Station	Fareham	-1.19204	50.85302	24	45	68
9100DLREOCH	Dalreoch Rail Station	Dumbarton	-4.57785	55.9474	24	50	122
9100BRNGTN	Brinnington Rail Station	Brinnington	-2.13512	53.43213	24	71	137
9100GNTN	Grangetown (Cardiff) Rail Station	Grangetown	-3.18973	51.46761	24	47	76
9100WISHAW	Wishaw Rail Station	Wishaw	-3.92643	55.77203	24	80	149
9100GARW	Garswood Rail Station	Garswood	-2.67213	53.48853	24	67	133
9100BRSTLTM	Bristol Temple Meads Rail Station	Bristol	-2.58132	51.44914	24	34	47
9100DRMGLCH	Drumgelloch Rail Station	Drumgelloch	-3.94888	55.86735	24	85	169
9100STHGYLE	South Gyle Rail Station	South Gyle	-3.29947	55.93635	24	52	88
9100HLDNBRO	Hildenborough Rail Station	Hildenborough	0.2276	51.21448	23	63	334
9100BRTWOOD	Brentwood Rail Station	Brentwood	0.29959	51.61361	23	182	431
9100MLSECMB	Moulsecoomb Rail Station	Moulsecoomb	-0.11884	50.84672	23	43	105
9100ASCOT	Ascot Rail Station	Ascot	-0.67583	51.40625	23	63	165
9100KILWNNG	Kilwinning Rail Station	Kilwinning	-4.71001	55.65594	23	67	160
9100BSCTSTA	Bescot Stadium Rail Station	Bescot	-1.9911	52.5631	23	71	112
9100THEALE	Theale Rail Station	Theale	-1.07497	51.43345	23	50	165
9100ASHVALE	Ash Vale Rail Station	Ash Vale	-0.72165	51.27225	23	68	312
9100BCKWATR	Blackwater Rail Station	Blackwater	-0.77674	51.33158	23	64	148
9100HMPTNIA	Hampton-in-Arden Rail Station	Hampton in Arden	-1.69994	52.42905	23	79	124
9100PRESCOT	Prescot Rail Station	Prescot	-2.79917	53.42357	23	61	123
9400ZZLUUXB	Uxbridge Underground Station	Uxbridge	-0.47794	51.54656	23	94	259
9100BATABAL	Bat & Ball Rail Station	Bat & Ball	0.19424	51.28976	23	82	379
9100CREWE	Crewe Rail Station	Crewe	-2.43298	53.08964	23	91	238
9100LEIGHK	Leigh (Kent) Rail Station	Leigh	0.21051	51.1939	23	63	285
9100SHPY	Shipley Rail Station	Shipley	-1.77349	53.83306	23	50	86
9100BOOKHAM	Bookham Rail Station	Little Bookham	-0.38401	51.28874	23	92	273
9100BRMB	Bromborough Rail Station	Bromborough	-2.9869	53.32186	23	68	117
9100BLKB	Blackburn Rail Station	Blackburn	-2.47913	53.74653	23	53	110
9100WHHL	Woodhall Rail Station	Port Glasgow	-4.65539	55.93119	23	75	158
9100HYDEC	Hyde Central Rail Station	Hyde	-2.08525	53.4519	23	61	118
9100RHIL	Rainhill Rail Station	Rainhill	-2.7664	53.41713	23	62	139
9100SHRHMBS	Shoreham-by-Sea (Sussex) Rail Station	Shoreham-by-Sea	-0.27171	50.83442	23	46	90
9100CRAWLEY	Crawley Rail Station	Crawley	-0.18667	51.11221	23	103	418
9100MAGHULL	Maghull Rail Station	Maghull	-2.93086	53.50648	23	55	102
9100CHLWTH	Chilworth Rail Station	Chilworth	-0.52482	51.21521	23	69	245
9100WMOR	Woodsmoor Rail Station	Woodsmoor	-2.14208	53.38649	23	86	149
9100INGTSTN	Ingatestone Rail Station	Ingatestone	0.38425	51.66705	23	176	425
9100SHIRLEY	Shirley Rail Station	Shirley	-1.84518	52.40344	23	73	112
9100APLYBDG	Appley Bridge Rail Station	Appley Bridge	-2.71925	53.57869	23	54	119
9100SHEFFLD	Sheffield Rail Station	Sheffield Centre	-1.4621	53.37824	23	51	124
9100NUTFILD	Nutfield Rail Station	Nutfield	-0.13253	51.22681	23	134	470
9100KNCKHLT	Knockholt Rail Station	Knockholt Kent Station	0.13086	51.34579	23	196	543
9100HDRSFLD	Huddersfield Rail Station	Huddersfield	-1.78469	53.64852	23	50	124
9100TMWTHHL	Tamworth High Level Rail Station	Tamworth	-1.68645	52.63749	23	91	146
9100ECCLES	Eccles Rail Station	Eccles	-2.33452	53.48537	23	100	171
9100PTYPRID	Pontypridd Rail Station	Pontypridd	-3.34139	51.59937	23	45	61
9100STDENYS	St Denys Rail Station	St Denys	-1.38776	50.92218	22	34	61
9100CARFIN	Carfin Rail Station	Carfin	-3.95625	55.80733	22	90	164
9100CHNLY	Chinley Rail Station	Chinley	-1.94395	53.34031	22	51	110
9100WEYBDGB	Weybridge Rail Station	Weybridge	-0.45773	51.36177	22	123	430
9100BRHM	Barnham Rail Station	Barnham	-0.63968	50.83089	22	47	72
9100BMHL	Bramhall Rail Station	Bramhall	-2.16359	53.36063	22	73	138
9400ZZLUTAW	Totteridge & Whetstone Underground Station	Whetstone	-0.17921	51.6306	22	191	492
9100ALDTON	Aldrington Rail Station	Hove	-0.18382	50.83638	22	41	82
9100LLISHEN	Llanishen Rail Station	Llanishen	-3.18199	51.53274	22	47	69
9100HAVANT	Havant Rail Station	Havant	-0.98161	50.85441	22	47	85
9100DONC	Doncaster Rail Station	Doncaster Centre	-1.13984	53.52217	22	71	133
9100BRACKNL	Bracknell Rail Station	Bracknell	-0.7517	51.41309	22	54	139
9100WORTHNG	Worthing Rail Station	Worthing	-0.37616	50.81849	22	42	76
9100LRDGFD	London Road (Guildford) Rail Station	Guildford	-0.56506	51.24065	22	67	272
9100NTNG	Nottingham Rail Station	Nottingham	-1.14638	52.94709	22	38	72
9100SALWICK	Salwick Rail Station	Salwick	-2.81704	53.78155	22	57	113
9100ELGH	Eastleigh Rail Station	Eastleigh	-1.35009	50.96924	22	37	75
9100INCE	Ince (Manchester) Rail Station	Ince	-2.61152	53.53893	22	64	139
9100LAWRNCH	Lawrence Hill Rail Station	Lawrence Hill	-2.56444	51.45801	22	30	39
9100WAUNGRN	Waun-gron Park Rail Station	Fairwater	-3.22966	51.4882	22	47	76
9400ZZLUHR5	Heathrow Airport Terminal 5 Underground Station	Heathrow Airport Terminal 5	-0.49055	51.47006	22	122	360
9400ZZLUTHB	Theydon Bois Underground Station	Theydon Bois	0.1031	51.67177	22	135	370
9100STROOD	Strood Rail Station	Strood	0.50019	51.39655	22	106	454
9100GLGN	Glengarnock Rail Station	Glengarnock	-4.67449	55.73888	22	73	158
9100LEYLAND	Leyland Rail Station	Leyland	-2.68714	53.69886	22	71	136
9100MNCRIAP	Manchester Airport Rail Station	Manchester Airport	-2.27298	53.36506	22	75	141
9100HRLWMIL	Harlow Mill Rail Station	Harlow Mill	0.13232	51.79037	22	80	335
9100ESTHRAK	Eastham Rake Rail Station	Eastham	-2.98114	53.30756	22	63	118
9100PLMPTON	Plumpton Rail Station	Plumpton Green	-0.06018	50.92866	22	55	154
9100HALW	Halewood Rail Station	Halewood	-2.83014	53.3645	22	58	125
9100PTGLSGW	Port Glasgow Rail Station	Port Glasgow	-4.68981	55.9335	22	62	151
9100RENTON	Renton Rail Station	Renton	-4.58611	55.97042	22	42	108
9100MHERON	Martins Heron Rail Station	Martins Heron	-0.7244	51.40741	22	56	139
9100WRYSBRY	Wraysbury Rail Station	Wraysbury	-0.54192	51.45771	22	86	325
9100BIRCHWD	Birchwood Rail Station	Birchwood	-2.52532	53.41274	22	82	174
9100BALCOMB	Balcombe Rail Station	Balcombe	-0.13693	51.05551	22	99	380
9100KEARSLY	Kearsley Rail Station	Kearsley	-2.37512	53.54415	22	80	163
9100BILERCY	Billericay Rail Station	Billericay	0.41864	51.62889	21	167	415
9100STVNSTN	Stevenston Rail Station	Stevenston	-4.75078	55.63427	21	37	129
9100WHISTON	Whiston Rail Station	Whiston	-2.79643	53.41388	21	62	144
9100COTNGLY	Cottingley Rail Station	Cottingley	-1.5877	53.76783	21	54	98
9100TLBYTWN	Tilbury Town Rail Station	Tilbury	0.35404	51.46236	21	70	256
9100CLANDON	Clandon Rail Station	West Clandon	-0.50276	51.264	21	68	208
9100BKNHRST	Brockenhurst Rail Station	Brockenhurst	-1.57354	50.81683	21	36	49
9100HWYCOMB	High Wycombe Rail Station	High Wycombe	-0.74541	51.62959	21	100	348
9100TMWTHLL	Tamworth Rail Station	Tamworth	-1.68647	52.63749	21	88	142
9100MELS	Meols Rail Station	Meols	-3.15428	53.39945	21	56	101
9100BRSTPWY	Bristol Parkway Rail Station	Stoke Gifford	-2.54217	51.5138	21	38	61
9400ZZLUWAF	Watford Underground Station	Watford	-0.41738	51.65745	21	79	246
9100STHLNSC	St Helens Central Rail Station	St Helens	-2.7303	53.45313	21	60	132
9100BRGHLRD	London Road (Brighton) Rail Station	Brighton	-0.1365	50.83666	21	47	120
9100EYNSFD	Eynsford Rail Station	Eynsford	0.20441	51.36272	21	80	358
9100SHRMKT	Shoreham (Kent) Rail Station	Shoreham	0.1889	51.33222	21	72	324
9100MSTONEW	Maidstone West Rail Station	Maidstone	0.51578	51.27046	21	48	143
9100WDNYMNR	Widney Manor Rail Station	Widney	-1.77438	52.39595	21	71	114
9100NWMILSC	New Mills Central Rail Station	New Mills	-2.00567	53.36486	21	53	100
9100ERLY	Earley Rail Station	Earley	-0.91799	51.4411	21	63	222
9100WOODLEY	Woodley Rail Station	Woodley	-2.09327	53.42927	21	52	108
9100LHONSEA	Leigh-on-Sea Rail Station	Leigh-on-Sea	0.64042	51.54128	21	47	164
9100URMSTON	Urmston Rail Station	Urmston	-2.3538	53.44829	21	81	155
9100MARPLE	Marple Rail Station	Marple	-2.05726	53.40071	21	59	110
9100CRTSDYK	Cartsdyke Rail Station	Cartsdyke	-4.73158	55.9422	21	38	131
9100EXETERC	Exeter Central Rail Station	Exeter City Centre	-3.5333	50.72647	21	30	42
9100SLATEFD	Slateford Rail Station	Slateford	-3.24345	55.92668	21	50	83
9100FURZEP	Furze Platt Rail Station	Furze Platt	-0.72847	51.53302	21	90	304
9100STHWICK	Southwick Rail Station	Southwick	-0.23595	50.83251	21	39	77
9100GODLY	Godley Rail Station	Godley	-2.05477	53.45172	21	58	120
9100GRTCSH	Gartcosh Rail Station	Gartcosh	-4.07948	55.88565	21	99	166
9100GLYNDE	Glynde Rail Station	Glynde	0.07008	50.85917	21	41	71
9100IRLAM	Irlam Rail Station	Irlam	-2.43324	53.43433	21	77	161
9100BOGSTON	Bogston Rail Station	Bogston	-4.71139	55.93703	21	49	141
9100HWKHEAD	Hawkhead Rail Station	Hawkhead	-4.39885	55.84218	21	107	177
9100TOTTON	Totton Rail Station	Totton	-1.48243	50.91787	21	38	57
9100WHLE	Whitlocks End Rail Station	Whitlocks End	-1.85153	52.39185	21	68	107
9100NRTF	Northfield Rail Station	Northfield	-1.96585	52.4082	21	73	117
9100DORIDGE	Dorridge Rail Station	Dorridge	-1.75291	52.37208	21	78	117
9100DTNG	Dunton Green Rail Station	Dunton Green	0.17095	51.29649	21	113	436
9400ZZCRNWA	New Addington Tramlink Stop	New Addington	-0.01741	51.34259	21	119	445
9100LYEE	Lye (West Midlands) Rail Station	Lye	-2.11593	52.45993	21	56	106
9100HOWOOD	Howwood (Renfrewshire) Rail Station	Howwood	-4.56304	55.81055	21	101	170
9100TREHAFD	Trehafod Rail Station	Trehafod	-3.38099	51.61015	20	35	56
9100SUNDRTN	Saunderton Rail Station	Saunderton Station	-0.82547	51.6759	20	56	249
9100SBDGWTH	Sawbridgeworth Rail Station	Sawbridgeworth	0.16043	51.81435	20	67	301
9100IRVN	Irvine Rail Station	Irvine	-4.67514	55.61086	20	48	146
9100WYTH	Wythall Rail Station	Wythall	-1.86553	52.37995	20	60	100
9100DRBY	Derby Rail Station	Derby	-1.46307	52.91618	20	46	133
9100DALRY	Dalry Rail Station	Dalry	-4.71107	55.70621	20	65	159
9100LCHWNCH	Lochwinnoch Rail Station	Lochwinnoch	-4.61606	55.78714	20	73	158
9100LSTH	Lostock Hall Rail Station	Lostock Hall	-2.68748	53.72425	20	60	114
9100FSHRSGT	Fishersgate Rail Station	Fishersgate	-0.21941	50.83423	20	40	82
9100STPLTNR	Stapleton Road Rail Station	Easton	-2.56622	51.46751	20	30	42
9100BSNGSTK	Basingstoke Rail Station	Basingstoke	-1.08726	51.26836	20	73	275
9100TAFFSWL	Taffs Well Rail Station	Taff's Well	-3.26295	51.5408	20	49	72
9100FILTNEW	Filton Abbey Wood Rail Station	Filton	-2.56244	51.50494	20	35	60
9400ZZLUCYD	Chorleywood Underground Station	Chorleywood	-0.51845	51.65436	20	63	230
9100WINERSH	Winnersh Rail Station	Winnersh	-0.87686	51.43028	20	50	171
9100CLDRCRX	Caldercruix Rail Station	Caldercruix	-3.88771	55.88793	20	64	155
9100GRENCKC	Greenock Central Rail Station	Greenock	-4.75262	55.94533	20	35	122
9100COVNTRY	Coventry Rail Station	Coventry	-1.51346	52.40083	20	83	140
9100LTHH	Lisvane & Thornhill Rail Station	Lisvane	-3.18561	51.54457	20	44	67
9100SNDRLND	Sunderland Rail Station	Sunderland	-1.3823	54.90534	20	30	41
9100STRBDGJ	Stourbridge Junction Rail Station	Stourbridge	-2.13385	52.4476	20	53	104
9100ALDEDGE	Alderley Edge Rail Station	Alderley Edge	-2.2368	53.3038	20	57	124
9100BERWICK	Berwick (Sussex) Rail Station	Berwick	0.16603	50.84037	20	38	64
9100CRLK	Carluke Rail Station	Carluke	-3.84892	55.73125	20	55	149
9100SUTCO	Sutton Coldfield Rail Station	Sutton Coldfield	-1.82485	52.56495	20	65	107
9100PKWD	Paddock Wood Rail Station	Paddock Wood	0.38917	51.18226	20	53	186
9100TABY	Thornaby Rail Station	Thornaby	-1.30141	54.55927	20	27	38
9100IVRKTHG	Inverkeithing Rail Station	Inverkeithing	-3.39619	56.03467	20	47	75
9100DIDCOTP	Didcot Parkway Rail Station	Didcot	-1.24289	51.61096	20	44	133
9100BDMNSTR	Bedminster Rail Station	Bedminster	-2.59416	51.44009	20	29	37
9100STJAMSP	St James Park (Devon) Rail Station	Exeter City Centre	-3.52202	50.73115	20	29	41
9100RCHT	Rochester Rail Station	Rochester	0.51029	51.38555	20	93	465
9100KIRKHAM	Kirkham & Wesham Rail Station	Kirkham	-2.88294	53.78693	20	50	105
9100SNDHRST	Sandhurst Rail Station	Sandhurst	-0.80459	51.34693	20	57	130
9100STHLNSJ	St Helens Junction Rail Station	St Helens	-2.70026	53.43374	20	61	159
9100DLMY	Dalmeny Rail Station	Dalmeny	-3.38162	55.98631	20	45	75
9100CHCHSTR	Chichester Rail Station	Chichester	-0.78175	50.83204	20	42	73
9100WINETGL	Winnersh Triangle Rail Station	Winnersh Triangle	-0.89134	51.43674	20	55	180
9100TYGLAS	Ty Glas Rail Station	Birchgrove	-3.19654	51.52154	20	43	68
9100CLELAND	Cleland Rail Station	Cleland	-3.91024	55.80464	20	73	155
